REG. NO.;CODE;NAME;REGION;DISTRICT;WARD;OWNERSHIP;LATITUDE;LONGITUDE;PASS_RATE;AVG_MARK;CHANGE_PREVIOUS_YEAR;RANK;YEAR_OF_RESULT
EM.1865;PS0101-001;BANGATA;ARUSHA;ARUSHA;BANGATA;GOVERNMENT;-3.3403253;36.7431434;;;;;
EM.4030;PS0101-003;BWAWANI;ARUSHA;ARUSHA;BWAWANI;GOVERNMENT;-3.6076467;36.8447191;;;;;
EM.11557;PS0101-005;EKENYWA;ARUSHA;ARUSHA;OLTURUMET;GOVERNMENT;-3.2983403;36.6267205;;;;;
EM.6937;PS0101-006;EMAOI;ARUSHA;ARUSHA;OLMOTONYI;GOVERNMENT;-3.3080883;36.6489966;;;;;
EM.6938;PS0101-007;ENDOINYOESOYE;ARUSHA;ARUSHA;TARAKWA;GOVERNMENT;-3.3227865;36.6515627;;;;;
EM.4031;PS0101-008;ENGALAONI;ARUSHA;ARUSHA;MWANDET;GOVERNMENT;-3.2379416;36.5442366;;;;;
EM.12373;PS0101-009;ENGORIKA;ARUSHA;ARUSHA;LEMANYATA;GOVERNMENT;-3.2327941;36.6422835;;;;;
EM.10548;PS0101-010;ENGUTUKOIT;ARUSHA;ARUSHA;OLDONYOWASS;GOVERNMENT;-3.0463618;36.7477283;;;;;
EM.7602;PS0101-011;ENYUATA;ARUSHA;ARUSHA;KIRANYI;GOVERNMENT;-3.358471;36.668068;;;;;
EM.9579;PS0101-012;GREEN ACRES;ARUSHA;ARUSHA;KIUTU;NON GOVERNMENT;-3.3624253;36.7056632;;;;;
EM.656;PS0101-013;ILBORU;ARUSHA;ARUSHA;ILBORU;GOVERNMENT;-3.347781;36.68613;;;;;
EM.10715;PS0101-014;ILKERIN;ARUSHA;ARUSHA;KISONGO;GOVERNMENT;-3.3567017;36.5261733;;;;;
EM.1171;PS0101-015;ILKIDING'A;ARUSHA;ARUSHA;ILKIDING'A;GOVERNMENT;-3.3178416;36.6848933;;;;;
EM.15191;PS0101-016;ILKISONGO;ARUSHA;ARUSHA;ILKIDING'A;GOVERNMENT;-3.317492;36.965646;;;;;
EM.10716;PS0101-017;ILKIUREI;ARUSHA;ARUSHA;KIRANYI;GOVERNMENT;-3.356937;36.676662;;;;;
EM.6939;PS0101-018;ILKUROT;ARUSHA;ARUSHA;OLKOKOLA;GOVERNMENT;-3.2264657;36.6184642;;;;;
EM.5787;PS0101-019;IMBIBIA;ARUSHA;ARUSHA;MWANDET;GOVERNMENT;-3.2489526;36.5856477;;;;;
EM.10887;PS0101-020;J.K. NYERERE;ARUSHA;ARUSHA;OLORIEN;GOVERNMENT;-3.3431873;36.6461204;;;;;
EM.6940;PS0101-022;KAMBI YA MAZIWA;ARUSHA;ARUSHA;MATEVES;GOVERNMENT;-3.3732665;36.5763576;;;;;
EM.4032;PS0101-023;KIGONGONI;ARUSHA;ARUSHA;BWAWANI;GOVERNMENT;-3.5378021;36.7805231;;;;;
EM.13028;PS0101-024;KILIMANJARO;ARUSHA;ARUSHA;OLORIEN;NON GOVERNMENT;-3.3501163;36.6522587;;;;;
EM.5788;PS0101-025;KIMNYAKI;ARUSHA;ARUSHA;KIMNYAKI;GOVERNMENT;-3.3154126;36.6547614;;;;;
EM.4577;PS0101-026;KIOGA;ARUSHA;ARUSHA;ILKIDING'A;GOVERNMENT;-3.3641707;36.7056296;;;;;
EM.13029;PS0101-027;KIRANYI;ARUSHA;ARUSHA;KIRANYI;GOVERNMENT;-3.358471;36.668068;;;;;
EM.2011;PS0101-028;KISERIAN;ARUSHA;ARUSHA;MLANGARINI;GOVERNMENT;-3.44958;36.740663;;;;;
EM.735;PS0101-029;KISONGO;ARUSHA;ARUSHA;KISONGO;GOVERNMENT;-3.369725;36.547065;;;;;
EM.11082;PS0101-030;LAMOLOKI;ARUSHA;ARUSHA;BWAWANI;GOVERNMENT;-3.580214;36.833073;;;;;
EM.6941;PS0101-031;LAROI;ARUSHA;ARUSHA;LAROI;GOVERNMENT;-3.4958783;36.6267749;;;;;
EM.2754;PS0101-032;LEMANYATA;ARUSHA;ARUSHA;LEMANYATA;GOVERNMENT;-3.26372;36.61808;;;;;
EM.6942;PS0101-033;LEMINYOR;ARUSHA;ARUSHA;OLDONYOSAMBU;GOVERNMENT;-3.1982275;36.6338513;;;;;
EM.3022;PS0101-034;LEMUGUR;ARUSHA;ARUSHA;MATEVES;GOVERNMENT;-3.4318583;36.5611199;;;;;
EM.4033;PS0101-035;LENGIJAVE;ARUSHA;ARUSHA;OLKOKOLA;GOVERNMENT;-3.2224733;36.6038033;;;;;
EM.4578;PS0101-036;LESIRAA;ARUSHA;ARUSHA;KISONGO;GOVERNMENT;-3.3975833;36.5051016;;;;;
EM.4034;PS0101-037;LIKAMBA;ARUSHA;ARUSHA;MUSA;GOVERNMENT;-3.3373668;36.559877;;;;;
EM.5789;PS0101-038;LOOVILUKUNYI;ARUSHA;ARUSHA;KISONGO;GOVERNMENT;-3.4087917;36.5432633;;;;;
EM.2343;PS0101-039;LORUVAN;ARUSHA;ARUSHA;OLTUROTO;GOVERNMENT;-3.3470433;36.7034833;;;;;
EM.6943;PS0101-040;LOSIKITO;ARUSHA;ARUSHA;MWANDET;GOVERNMENT;-3.5391888;36.6506438;;;;;
EM.4579;PS0101-041;LOSINONI;ARUSHA;ARUSHA;OLDONYOWASS;GOVERNMENT;-3.0473625;36.6981188;;;;;
EM.4580;PS0101-043;MAJI MOTO;ARUSHA;ARUSHA;NDURUMA;GOVERNMENT;-3.3539155;36.0075363;;;;;
EM.6944;PS0101-044;MANYIRE;ARUSHA;ARUSHA;MLANGARINI;GOVERNMENT;-3.4546016;36.8054433;;;;;
EM.4581;PS0101-045;MARURANI;ARUSHA;ARUSHA;NDURUMA;GOVERNMENT;-3.4798152;36.8440208;;;;;
EM.12374;PS0101-047;MATIM;ARUSHA;ARUSHA;LEMANYATA;GOVERNMENT;-3.1548698;36.3745156;;;;;
EM.6945;PS0101-048;MBUYUNI;ARUSHA;ARUSHA;OLJORO;GOVERNMENT;-3.5632833;36.6561466;;;;;
EM.4582;PS0101-049;MIDAWE;ARUSHA;ARUSHA;BANGATA;GOVERNMENT;-3.3684617;36.7531625;;;;;
EM.6946;PS0101-050;MIRONGOINE;ARUSHA;ARUSHA;OLJORO;GOVERNMENT;-3.5679519;36.6531133;;;;;
EM.4035;PS0101-051;MLANGARINI;ARUSHA;ARUSHA;MLANGARINI;GOVERNMENT;-3.447954;36.786516;;;;;
EM.13030;PS0101-052;MOIVO;ARUSHA;ARUSHA;MOIVO;GOVERNMENT;-3.3470433;36.7034833;;;;;
EM.6947;PS0101-054;MRINGA;ARUSHA;ARUSHA;OLORIEN;GOVERNMENT;-3.3540036;36.6156082;;;;;
EM.5790;PS0101-055;MUNGUSHI;ARUSHA;ARUSHA;BWAWANI;GOVERNMENT;-3.5292372;36.8333401;;;;;
EM.1172;PS0101-057;MUSA;ARUSHA;ARUSHA;MUSA;GOVERNMENT;-3.3224154;36.5205957;;;;;
EM.9230;PS0101-058;MUUNGANO;ARUSHA;ARUSHA;MLANGARINI;GOVERNMENT;-3.482045;36.7362017;;;;;
EM.1457;PS0101-059;MWANDETI;ARUSHA;ARUSHA;MWANDET;GOVERNMENT;-3.5391888;36.6506438;;;;;
EM.7603;PS0101-060;MZIMUNI;ARUSHA;ARUSHA;NDURUMA;GOVERNMENT;-3.5046799;36.8059825;;;;;
EM.6948;PS0101-061;NAMBERE;ARUSHA;ARUSHA;SOKON II;GOVERNMENT;-3.353053;36.721954;;;;;
EM.7604;PS0101-062;NATEMA;ARUSHA;ARUSHA;KIRANYI;GOVERNMENT;-3.3399363;36.6999421;;;;;
EM.11558;PS0101-063;NAUREI;ARUSHA;ARUSHA;KIUTU;GOVERNMENT;-3.3516817;36.7147611;;;;;
EM.1173;PS0101-064;NDURUMA;ARUSHA;ARUSHA;NDURUMA;GOVERNMENT;-3.4749033;36.7937083;;;;;
EM.1562;PS0101-065;NENGUNGU;ARUSHA;ARUSHA;MUSA;GOVERNMENT;-3.3438383;36.4704983;;;;;
EM.7605;PS0101-066;NGARAMTONI;ARUSHA;ARUSHA;OLTURUMET;GOVERNMENT;-3.3158654;36.6382362;;;;;
EM.4583;PS0101-067;NG'IRESI;ARUSHA;ARUSHA;SOKON II;GOVERNMENT;-3.3322759;36.7329216;;;;;
EM.13884;PS0101-068;NURU;ARUSHA;ARUSHA;ILBORU;NON GOVERNMENT;-3.3500612;36.3739801;;;;;
EM.12375;PS0101-071;OLBAK;ARUSHA;ARUSHA;OLKOKOLA;GOVERNMENT;-3.2233833;36.6046456;;;;;
EM.3408;PS0101-072;OLCHOKI;ARUSHA;ARUSHA;KIRANYI;GOVERNMENT;-3.3394;36.672;;;;;
EM.4584;PS0101-073;OLCHOROVUS;ARUSHA;ARUSHA;MUSA;GOVERNMENT;-3.2981716;36.5276916;;;;;
EM.603;PS0101-074;OLDADAI;ARUSHA;ARUSHA;SOKON II;GOVERNMENT;-3.363306;36.734878;;;;;
EM.11559;PS0101-075;OLDENDERETI;ARUSHA;ARUSHA;NDURUMA;GOVERNMENT;-3.7448033;36.7637083;;;;;
EM.2600;PS0101-076;OLDONYOSAMBU;ARUSHA;ARUSHA;OLDONYOSAMBU;GOVERNMENT;-3.1540333;36.6776233;;;;;
EM.990;PS0101-077;OLDONYOSAPUK;ARUSHA;ARUSHA;OLTUROTO;GOVERNMENT;-3.329909;36.709148;;;;;
EM.8199;PS0101-078;OLDONYOWAS;ARUSHA;ARUSHA;OLDONYOWASS;GOVERNMENT;-3.1548304;36.6864811;;;;;
EM.4585;PS0101-079;OLGILAI;ARUSHA;ARUSHA;KIUTU;GOVERNMENT;-3.3423317;36.7228777;;;;;
EM.3023;PS0101-080;OLJORO;ARUSHA;ARUSHA;OLJORO;GOVERNMENT;-3.5809598;36.6780255;;;;;
EM.1174;PS0101-082;OLKOKOLA;ARUSHA;ARUSHA;LEMANYATA;GOVERNMENT;-3.2317394;36.6112483;;;;;
EM.2210;PS0101-083;OLMOTONYI;ARUSHA;ARUSHA;OLMOTONYI;GOVERNMENT;-3.2910419;36.6493041;;;;;
EM.4586;PS0101-084;OLMRINGIRINGA;ARUSHA;ARUSHA;KIMNYAKI;GOVERNMENT;-3.3046096;36.6716773;;;;;
EM.11083;PS0101-085;OLOIRIEN VALLEY;ARUSHA;ARUSHA;OLORIEN;NON GOVERNMENT;-3.3222531;36.6331767;;;;;
EM.2012;PS0101-086;OLOKII;ARUSHA;ARUSHA;BWAWANI;GOVERNMENT;-3.5046699;36.8059715;;;;;
EM.7606;PS0101-087;OLOSIVA;ARUSHA;ARUSHA;OLORIEN;GOVERNMENT;-3.3451606;36.6477138;;;;;
EM.991;PS0101-088;OLTROTO;ARUSHA;ARUSHA;OLTUROTO;GOVERNMENT;-3.33370166;36.6891666;;;;;
EM.4587;PS0101-089;OLTURMET;ARUSHA;ARUSHA;OLTURUMET;GOVERNMENT;-3.3647191;36.6093081;;;;;
EM.2856;PS0101-090;SAMBASHA;ARUSHA;ARUSHA;SAMBASHA;GOVERNMENT;-3.2965333;36.670045;;;;;
EM.3409;PS0101-091;SASI;ARUSHA;ARUSHA;BANGATA;GOVERNMENT;-3.656505;36.7619751;;;;;
EM.992;PS0101-092;SEKEI;ARUSHA;ARUSHA;KIUTU;GOVERNMENT;-3.3574107;36.7166343;;;;;
EM.335;PS0101-093;SELIAN;ARUSHA;ARUSHA;KIMNYAKI;GOVERNMENT;-3.323945;36.655226;;;;;
EM.9231;PS0101-095;SITTI MWINYI;ARUSHA;ARUSHA;OLJORO;GOVERNMENT;-3.5354545;36.6442353;;;;;
EM.12376;PS0101-096;SOS HERMAN;ARUSHA;ARUSHA;OLTURUMET;NON GOVERNMENT;-3.308119;36.637477;;;;;
EM.11561;PS0101-098;ST. MARGRETH;ARUSHA;ARUSHA;KISONGO;NON GOVERNMENT;-3.3717041;36.5805175;;;;;
EM.5791;PS0101-101;THEMI YA SIMBA;ARUSHA;ARUSHA;BWAWANI;GOVERNMENT;-3.5967623;36.6996714;;;;;
EM.11084;PS0101-102;TIMBOLO;ARUSHA;ARUSHA;SAMBASHA;GOVERNMENT;-3.2980756;36.6700733;;;;;
EM.10888;PS0101-103;TRUST ST. PATRICK;ARUSHA;ARUSHA;OLORIEN;NON GOVERNMENT;-3.3541965;36.6522091;;;;;
EM.11562;PS0101-104;UMOJA;ARUSHA;ARUSHA;NDURUMA;GOVERNMENT;-3.7349033;36.7737083;;;;;
EM.14968;PS0101-106;MAGRETH ENGLAND BARK;ARUSHA;ARUSHA;OLTURUMET;NON GOVERNMENT;-3.3022721;36.6375616;;;;;
EM.13031;PS0101-107;NEW LIFE;ARUSHA;ARUSHA;OLORIEN;NON GOVERNMENT;-3.3436141;36.6469212;;;;;
EM.11560;PS0101-108;OLOMITU;ARUSHA;ARUSHA;MLANGARINI;GOVERNMENT;-3.412286;36.758884;;;;;
EM.14311;PS0101-109;YAKINI;ARUSHA;ARUSHA;KISONGO;NON GOVERNMENT;-3.3874027;36.5539942;;;;;
EM.13885;PS0101-112;SOTWA WILSON;ARUSHA;ARUSHA;MOIVO;NON GOVERNMENT;-3.38768;36.7388631;;;;;
EM.13886;PS0101-113;WILKABAA;ARUSHA;ARUSHA;SOKON II;NON GOVERNMENT;-3.357785;36.7179266;;;;;
EM.13504;PS0101-114;ALBEHIJE;ARUSHA;ARUSHA;KIRANYI;NON GOVERNMENT;-3.3620171;36.6856885;;;;;
EM.13507;PS0101-115;NEW VISION;ARUSHA;ARUSHA;OLTURUMET;NON GOVERNMENT;-3.3408047;36.6264302;;;;;
EM.14964;PS0101-116;ASSALAF;ARUSHA;ARUSHA;MATEVES;NON GOVERNMENT;-3.385133;36.5491474;;;;;
EM.13505;PS0101-117;ENJORO;ARUSHA;ARUSHA;LAROI;GOVERNMENT;-3.4320129;36.6517247;;;;;
EM.14568;PS0101-118;LIKAMBA INTEGRITY;ARUSHA;ARUSHA;MUSA;NON GOVERNMENT;-3.3373667;36.5598467;;;;;
EM.13506;PS0101-119;MSHIKAMANO;ARUSHA;ARUSHA;NDURUMA;GOVERNMENT;-3.4798152;36.8440208;;;;;
EM.14569;PS0101-120;ST.PAUL;ARUSHA;ARUSHA;KIUTU;NON GOVERNMENT;-3.179993;36.649904;;;;;
EM.14966;PS0101-121;GOODWILL;ARUSHA;ARUSHA;MOIVO;NON GOVERNMENT;-3.3551844;36.6921826;;;;;
EM.14962;PS0101-122;ARUSHA HILL SIDE;ARUSHA;ARUSHA;MATEVES;NON GOVERNMENT;-3.3732665;36.5763576;;;;;
EM.14754;PS0101-123;EBENEZER;ARUSHA;ARUSHA;SOKON II;NON GOVERNMENT;-3.3665232;36.7135984;;;;;
EM.14965;PS0101-124;EUNOTO;ARUSHA;ARUSHA;MUSA;GOVERNMENT;-3.3373669;36.5598478;;;;;
EM.14309;PS0101-125;ILKONERE;ARUSHA;ARUSHA;OLMOTONYI;GOVERNMENT;-3.3622783;36.7075383;;;;;
EM.14967;PS0101-126;MAASAY JOY;ARUSHA;ARUSHA;OLTURUMET;NON GOVERNMENT;-3.2686734;36.6327869;;;;;
EM.14310;PS0101-127;SONGAMBELE;ARUSHA;ARUSHA;BWAWANI;GOVERNMENT;-3.5967621;36.6996712;;;;;
EM.14963;PS0101-128;ARUSHA VICTORY;ARUSHA;ARUSHA;KIRANYI;NON GOVERNMENT;-3.3579834;36.6780255;;;;;
EM.15917;PS0101-129;GRACIOUS;ARUSHA;ARUSHA;KIRANYI;NON GOVERNMENT;-3.3475766;36.6696166;;;;;
EM.14567;PS0101-130;ENGIKARETI;ARUSHA;ARUSHA;BANGATA;GOVERNMENT;-3.3722475;36.7538238;;;;;
EM.15190;PS0101-131;ENGILANG'ET;ARUSHA;ARUSHA;MOIVO;NON GOVERNMENT;-3.3472802;36.6992602;;;;;
EM.15192;PS0101-132;NAMELOK;ARUSHA;ARUSHA;OLDONYOWASS;GOVERNMENT;-3.1347033;36.7460733;;;;;
EM.15194;PS0101-134;ST. AUGUSTINE;ARUSHA;ARUSHA;KIRANYI;NON GOVERNMENT;-3.7417673;36.4787644;;;;;
EM.180;PS0102-001;ARUSHA SCHOOL;ARUSHA;ARUSHA CC;THEMI;GOVERNMENT;-3.3760433;36.6941067;;;;;
EM.8200;PS0102-002;BARAA;ARUSHA;ARUSHA CC;BARAA;GOVERNMENT;-3.3887066;36.737565;;;;;
EM.2013;PS0102-003;BURKA;ARUSHA;ARUSHA CC;ELERAI;GOVERNMENT;-3.3648532;36.6614862;;;;;
EM.2101;PS0102-004;ENGOSENGIU;ARUSHA;ARUSHA CC;SINONI;GOVERNMENT;-3.416155;36.6879112;;;;;
EM.1563;PS0102-005;KALOLENI;ARUSHA;ARUSHA CC;KALOLENI;GOVERNMENT;-3.3673166;36.6897459;;;;;
EM.1564;PS0102-006;KIMANDOLU;ARUSHA;ARUSHA CC;KIMANDOLU;GOVERNMENT;-3.3683767;36.7045549;;;;;
EM.2857;PS0102-007;KIJENGE;ARUSHA;ARUSHA CC;SEKEI;GOVERNMENT;-3.376673;36.7048666;;;;;
EM.5792;PS0102-008;LEMARA;ARUSHA;ARUSHA CC;LEMARA;GOVERNMENT;-3.4033093;36.7002712;;;;;
EM.8275;PS0102-009;LEVOLOSI;ARUSHA;ARUSHA CC;LEVOLOSI;GOVERNMENT;-3.3674863;36.6813965;;;;;
EM.1709;PS0102-010;MERU;ARUSHA;ARUSHA CC;KATI;GOVERNMENT;-3.3699479;36.6898233;;;;;
EM.7607;PS0102-011;MKONOO;ARUSHA;ARUSHA CC;TERRAT;GOVERNMENT;-3.4739584;36.7050348;;;;;
EM.4036;PS0102-012;NADOSOITO;ARUSHA;ARUSHA CC;MURIET;GOVERNMENT;-3.4958982;36.6811609;;;;;
EM.657;PS0102-013;NAURA;ARUSHA;ARUSHA CC;SEKEI;GOVERNMENT;-3.3626924;36.69574;;;;;
EM.2858;PS0102-014;NGARENARO;ARUSHA;ARUSHA CC;NGARENARO;GOVERNMENT;-3.3735816;36.6773513;;;;;
EM.8276;PS0102-015;NJIRO HILL;ARUSHA;ARUSHA CC;ENGUTOTO;GOVERNMENT;-3.423265;36.707683;;;;;
EM.7608;PS0102-016;OLOIRIEN;ARUSHA;ARUSHA CC;OLOIRIEN;GOVERNMENT;-3.3885404;36.7117286;;;;;
EM.302;PS0102-017;SANAWARI;ARUSHA;ARUSHA CC;SEKEI;GOVERNMENT;-3.3627379;36.695889;;;;;
EM.736;PS0102-018;SINON;ARUSHA;ARUSHA CC;SINONI;GOVERNMENT;-3.3938505;36.6820367;;;;;
EM.2344;PS0102-019;SOMBETINI;ARUSHA;ARUSHA CC;SOMBETINI;GOVERNMENT;-3.3900111;36.6665666;;;;;
EM.2755;PS0102-020;THEMI;ARUSHA;ARUSHA CC;THEMI;GOVERNMENT;-3.3807836;36.6891492;;;;;
EM.295;PS0102-021;UHURU;ARUSHA;ARUSHA CC;KATI;GOVERNMENT;-3.67584;36.69908;;;;;
EM.10410;PS0102-022;DARAJA MBILI;ARUSHA;ARUSHA CC;DARAJA II;GOVERNMENT;-3.386763;36.694123;;;;;
EM.10267;PS0102-026;MAROMBOSO;ARUSHA;ARUSHA CC;NGARENARO;NON GOVERNMENT;-3.3693832;36.676965;;;;;
EM.10890;PS0102-028;ARUSHA MODERN;ARUSHA;ARUSHA CC;ELERAI;NON GOVERNMENT;-3.361742;36.66111;;;;;
EM.11085;PS0102-029;ARUSHA INTEGRATED;ARUSHA;ARUSHA CC;ELERAI;NON GOVERNMENT;-3.3634187;36.6580771;;;;;
EM.10551;PS0102-030;SUYE;ARUSHA;ARUSHA CC;KIMANDOLU;GOVERNMENT;-3.3853076;36.7201073;;;;;
EM.11568;PS0102-031;PARENTS;ARUSHA;ARUSHA CC;SOKON I;NON GOVERNMENT;-3.4040983;36.6779233;;;;;
EM.11567;PS0102-032;OSUNYAI;ARUSHA;ARUSHA CC;OSUNYAI JR;GOVERNMENT;-3.39012;36.6677933;;;;;
EM.10892;PS0102-033;IMANI SCHOOL;ARUSHA;ARUSHA CC;OSUNYAI JR;NON GOVERNMENT;-3.38352;36.67018;;;;;
EM.11564;PS0102-034;KILIMANI;ARUSHA;ARUSHA CC;SEKEI;NON GOVERNMENT;-3.3642378;37.701434;;;;;
EM.11569;PS0102-035;SWIFTS;ARUSHA;ARUSHA CC;NGARENARO;NON GOVERNMENT;-3.3655453;36.6750912;;;;;
EM.13038;PS0102-036;PRIME;ARUSHA;ARUSHA CC;SEKEI;NON GOVERNMENT;-3.382638;36.696001;;;;;
EM.10411;PS0102-037;ENGARENAROK LUTH. TETRA;ARUSHA;ARUSHA CC;NGARENARO;NON GOVERNMENT;-3.361385;36.6712933;;;;;
EM.10549;PS0102-038;ENGIRA;ARUSHA;ARUSHA CC;THEMI;GOVERNMENT;-3.3940816;36.6975333;;;;;
EM.12377;PS0102-039;GREEN VALLEY;ARUSHA;ARUSHA CC;SOMBETINI;NON GOVERNMENT;-3.3893041;36.6643634;;;;;
EM.12380;PS0102-040;LISE;ARUSHA;ARUSHA CC;NGARENARO;NON GOVERNMENT;-3.3656971;36.6738176;;;;;
EM.13510;PS0102-041;MWANGAZA;ARUSHA;ARUSHA CC;NGARENARO;GOVERNMENT;-3.374502;36.70066;;;;;
EM.10550;PS0102-042;SOKONI I;ARUSHA;ARUSHA CC;SOKON I;GOVERNMENT;-3.401735;36.6681033;;;;;
EM.12384;PS0102-043;SHALOM;ARUSHA;ARUSHA CC;LEMARA;NON GOVERNMENT;-7.970956;40.940491;;;;;
EM.13032;PS0102-044;BETHEL;ARUSHA;ARUSHA CC;KIMANDOLU;NON GOVERNMENT;-3.392235;36.680385;;;;;
EM.11563;PS0102-045;ASSUMPTION;ARUSHA;ARUSHA CC;OLOIRIEN;NON GOVERNMENT;-3.3841364;36.7071053;;;;;
EM.12378;PS0102-046;HADY;ARUSHA;ARUSHA CC;OSUNYAI JR;NON GOVERNMENT;-3.3853796;36.6689221;;;;;
EM.10889;PS0102-047;ANGELICO LIPAN;ARUSHA;ARUSHA CC;SOMBETINI;NON GOVERNMENT;-3.3852664;36.6709666;;;;;
EM.11086;PS0102-048;ELERAI;ARUSHA;ARUSHA CC;ELERAI;GOVERNMENT;-3.3729361;36.6567847;;;;;
EM.13035;PS0102-049;HIGH VIEW;ARUSHA;ARUSHA CC;SOMBETINI;NON GOVERNMENT;-3.38643125;36.661566;;;;;
EM.12381;PS0102-050;LOAMO;ARUSHA;ARUSHA CC;OLOIRIEN;NON GOVERNMENT;-3.3882633;36.7133133;;;;;
EM.13036;PS0102-051;MAKUMBUSHO;ARUSHA;ARUSHA CC;KALOLENI;GOVERNMENT;-3.3668437;36.6895808;;;;;
EM.13509;PS0102-052;MOIVOI;ARUSHA;ARUSHA CC;OLOIRIEN;GOVERNMENT;-3.3845156;36.7113702;;;;;
EM.12383;PS0102-053;MOUNT MERU;ARUSHA;ARUSHA CC;ENGUTOTO;NON GOVERNMENT;-3.4410988;36.7130472;;;;;
EM.13039;PS0102-054;UKOMBOZI;ARUSHA;ARUSHA CC;SINONI;GOVERNMENT;-3.3921756;36.6844638;;;;;
EM.12386;PS0102-055;UNITY SCHOOL;ARUSHA;ARUSHA CC;NGARENARO;NON GOVERNMENT;-3.3686452;36.675275;;;;;
EM.13512;PS0102-056;SALEI;ARUSHA;ARUSHA CC;UNGA LTD;GOVERNMENT;-3.3801921;36.674359;;;;;
EM.13034;PS0102-058;ENALEPO;ARUSHA;ARUSHA CC;DARAJA II;NON GOVERNMENT;-3.3885302;36.6963438;;;;;
EM.10891;PS0102-059;HIGHRIDGE;ARUSHA;ARUSHA CC;THEMI;NON GOVERNMENT;-3.3941999;36.7067183;;;;;
EM.14975;PS0102-060;MARANATHA MISSION;ARUSHA;ARUSHA CC;LEVOLOSI;NON GOVERNMENT;-3.3610516;36.680395;;;;;
EM.11566;PS0102-061;NOTRE DAME;ARUSHA;ARUSHA CC;LEMARA;NON GOVERNMENT;-3.425423;36.702165;;;;;
EM.13513;PS0102-062;SHINDA BASIC;ARUSHA;ARUSHA CC;SOKON I;NON GOVERNMENT;-3.395134;36.67758;;;;;
EM.11565;PS0102-063;KIMANDOLU LUTHERAN;ARUSHA;ARUSHA CC;KIMANDOLU;NON GOVERNMENT;-3.370864;36.71531;;;;;
EM.13511;PS0102-064;NALOPA;ARUSHA;ARUSHA CC;ENGUTOTO;NON GOVERNMENT;-3.447028;36.710923;;;;;
EM.13037;PS0102-065;OLAIPAPA;ARUSHA;ARUSHA CC;SOMBETINI;NON GOVERNMENT;;;;;;;
EM.14314;PS0102-066;AZIMIO;ARUSHA;ARUSHA CC;ELERAI;GOVERNMENT;-3.365535;36.662405;;;;;
EM.14316;PS0102-067;ESA;ARUSHA;ARUSHA CC;SOKON I;NON GOVERNMENT;-3.401541;36.6751321;;;;;
EM.12379;PS0102-068;JOSEPH SCHOOL;ARUSHA;ARUSHA CC;ELERAI;NON GOVERNMENT;-3.36221;36.65966;;;;;
EM.12385;PS0102-071;TUISHIME;ARUSHA;ARUSHA CC;ENGUTOTO;NON GOVERNMENT;-3.4196;36.7079;;;;;
EM.13514;PS0102-072;ST.THADEUS;ARUSHA;ARUSHA CC;ELERAI;NON GOVERNMENT;-3.368465;36.6648771;;;;;
EM.14312;PS0102-073;ARUSHA ALLIANCE;ARUSHA;ARUSHA CC;OLASITI;NON GOVERNMENT;-3.4179135;36.66439;;;;;
EM.8201;PS0102-074;BURKA ESTATE;ARUSHA;ARUSHA CC;OLASITI;GOVERNMENT;-3.412956;36.63888;;;;;
EM.13033;PS0102-075;CANAAN;ARUSHA;ARUSHA CC;OLMOTI;NON GOVERNMENT;-3.3777067;36.65223993;;;;;
EM.14755;PS0102-076;HIGH CHALLENGE;ARUSHA;ARUSHA CC;MURIET;NON GOVERNMENT;-3.4215342;36.6630579;;;;;
EM.13887;PS0102-077;HOPE;ARUSHA;ARUSHA CC;MOSHONO;NON GOVERNMENT;-3.399049;36.7383433;;;;;
EM.13888;PS0102-078;LADY OF MERCY;ARUSHA;ARUSHA CC;KIMANDOLU;NON GOVERNMENT;-3.3887586;36.716045;;;;;
EM.13508;PS0102-080;LUCKY VICENT;ARUSHA;ARUSHA CC;OLASITI;NON GOVERNMENT;-3.4101138;36.6554973;;;;;
EM.12382;PS0102-081;MAGEREZA;ARUSHA;ARUSHA CC;OLMOTI;GOVERNMENT;-3.3633511;36.6286782;;;;;
EM.2450;PS0102-082;MATEVES;ARUSHA;ARUSHA CC;OLMOTI;GOVERNMENT;-3.389619;36.622719;;;;;
EM.1770;PS0102-084;MOSHONO;ARUSHA;ARUSHA CC;MOSHONO;GOVERNMENT;-3.3908316;36.7306416;;;;;
EM.13889;PS0102-085;MURIET;ARUSHA;ARUSHA CC;MURIET;NON GOVERNMENT;-3.4129023;36.657376;;;;;
EM.6949;PS0102-086;MURONGOINE;ARUSHA;ARUSHA CC;OLMOTI;GOVERNMENT;-3.4987193;36.6338192;;;;;
EM.14572;PS0102-087;NAKIDO;ARUSHA;ARUSHA CC;SOKON I;NON GOVERNMENT;-3.384808;36.67524;;;;;
EM.993;PS0102-088;OLASITI;ARUSHA;ARUSHA CC;OLASITI;GOVERNMENT;-3.4137888;36.638447;;;;;
EM.6950;PS0102-089;OLKEREYAN;ARUSHA;ARUSHA CC;MOSHONO;GOVERNMENT;-3.4455956;36.7083595;;;;;
EM.6951;PS0102-090;SHANGARAO;ARUSHA;ARUSHA CC;MOIVARO;GOVERNMENT;-3.4018216;36.7590683;;;;;
EM.14319;PS0102-091;SHEPHERDS JUNIOR;ARUSHA;ARUSHA CC;MOIVARO;NON GOVERNMENT;-3.367207;36.721578;;;;;
EM.11087;PS0102-092;ST. ANDREW'S SCHOOL;ARUSHA;ARUSHA CC;OLOIRIEN;NON GOVERNMENT;-3.3930458;36.7252308;;;;;
EM.10893;PS0102-093;ST.THOMAS;ARUSHA;ARUSHA CC;MOSHONO;NON GOVERNMENT;-3.3771112;36.7376696;;;;;
EM.2532;PS0102-094;TERRAT;ARUSHA;ARUSHA CC;MURIET;GOVERNMENT;-3.4557769;36.6526513;;;;;
EM.14320;PS0102-095;UHURU PEAK;ARUSHA;ARUSHA CC;BARAA;NON GOVERNMENT;-3.3702688;36.7375;;;;;
EM.13515;PS0102-096;WEMA;ARUSHA;ARUSHA CC;MOSHONO;GOVERNMENT;-3.3869135;36.7273423;;;;;
EM.14970;PS0102-097;CAMP JOSHUA;ARUSHA;ARUSHA CC;SINONI;NON GOVERNMENT;-3.4052699;36.6662027;;;;;
EM.14977;PS0102-098;SOJEMA;ARUSHA;ARUSHA CC;MURIET;NON GOVERNMENT;-3.4147452;36.6687531;;;;;
EM.14317;PS0102-099;MECSONS;ARUSHA;ARUSHA CC;OLASITI;NON GOVERNMENT;-3.4000345;36.6472669;;;;;
EM.14574;PS0102-100;ST.JUDE;ARUSHA;ARUSHA CC;MOIVARO;NON GOVERNMENT;-3.3920172;36.7400327;;;;;
EM.14973;PS0102-101;INTEGRITY;ARUSHA;ARUSHA CC;DARAJA II;NON GOVERNMENT;-3.4443374;36.7090329;;;;;
EM.14570;PS0102-102;BIBLE BAPTIST;ARUSHA;ARUSHA CC;OLOIRIEN;NON GOVERNMENT;-3.3883282;36.710052;;;;;
EM.15198;PS0102-103;INTEL SCHOOLS;ARUSHA;ARUSHA CC;TERRAT;NON GOVERNMENT;-3.4575255;36.70095;;;;;
EM.14976;PS0102-104;ROYAL;ARUSHA;ARUSHA CC;SINONI;NON GOVERNMENT;-3.3940732;36.6843222;;;;;
EM.14972;PS0102-105;GHATI MEMORIAL;ARUSHA;ARUSHA CC;SINONI;NON GOVERNMENT;-3.4076327;36.6829956;;;;;
EM.15197;PS0102-106;GOOD HOPE;ARUSHA;ARUSHA CC;SOMBETINI;NON GOVERNMENT;-3.3999933;36.6678908;;;;;
EM.14974;PS0102-107;MACHWA;ARUSHA;ARUSHA CC;MURIET;NON GOVERNMENT;-3.3500211;36.6263413;;;;;
EM.14571;PS0102-108;MAWENI;ARUSHA;ARUSHA CC;TERRAT;GOVERNMENT;-3.5105042;36.7146219;;;;;
EM.16683;PS0102-109;PEACE;ARUSHA;ARUSHA CC;ENGUTOTO;NON GOVERNMENT;-3.3310877;36.6120352;;;;;
EM.14756;PS0102-110;ST. GEMMA GALGAN;ARUSHA;ARUSHA CC;OLMOTI;NON GOVERNMENT;-3.3700612;36.6025201;;;;;
EM.14573;PS0102-111;ST. MONICA;ARUSHA;ARUSHA CC;MOSHONO;NON GOVERNMENT;-3.4027233;36.742145;;;;;
EM.14575;PS0102-112;UPENDO FRIENDS;ARUSHA;ARUSHA CC;OLMOTI;NON GOVERNMENT;-3.3720349;36.5989967;;;;;
EM.14969;PS0102-113;BARBRA SCHOOL;ARUSHA;ARUSHA CC;SOKON I;NON GOVERNMENT;-3.3995088;36.6700833;;;;;
EM.14971;PS0102-115;CHETI;ARUSHA;ARUSHA CC;MURIET;NON GOVERNMENT;-3.4724237;36.6684748;;;;;
EM.15195;PS0102-116;DOMINION;ARUSHA;ARUSHA CC;SOKON I;NON GOVERNMENT;-3.4190654;36.6615265;;;;;
EM.15403;PS0102-119;GOLGOTHA;ARUSHA;ARUSHA CC;SOKON I;NON GOVERNMENT;-3.4064473;36.6675744;;;;;
EM.15923;PS0102-120;HEALSUN;ARUSHA;ARUSHA CC;MURIET;NON GOVERNMENT;-3.4557768;36.6526512;;;;;
EM.15924;PS0102-121;JOSHUA;ARUSHA;ARUSHA CC;MOSHONO;NON GOVERNMENT;-3.45472;36.7109652;;;;;
EM.4588;PS0103-001;AYALABE;ARUSHA;KARATU;GANAKO;GOVERNMENT;-3.317702;35.690452;;;;;
EM.8428;PS0103-002;BARAKTA;ARUSHA;KARATU;KANSAY;GOVERNMENT;-3.6742049;35.5685333;;;;;
EM.2601;PS0103-003;BASHAY;ARUSHA;KARATU;QURUS;GOVERNMENT;-3.3610566;35.6340316;;;;;
EM.2859;PS0103-004;BASSODAWISH;ARUSHA;KARATU;ENDAMARARIEK;GOVERNMENT;-3.336993;35.6010707;;;;;
EM.994;PS0103-005;BUGER;ARUSHA;KARATU;BUGER;GOVERNMENT;-3.2796456;35.5862338;;;;;
EM.8429;PS0103-006;BWAWANI;ARUSHA;KARATU;KARATU;GOVERNMENT;-3.2035196;35.4030078;;;;;
EM.5793;PS0103-007;CHANGARAWE;ARUSHA;KARATU;DAA;GOVERNMENT;-3.3850433;35.5777433;;;;;
EM.9334;PS0103-008;CHEMCHEM;ARUSHA;KARATU;RHOTIA;GOVERNMENT;-3.3887733;35.7650433;;;;;
EM.7609;PS0103-009;DUMBECHAND;ARUSHA;KARATU;BARAY;GOVERNMENT;-3.5863883;35.314565;;;;;
EM.658;PS0103-010;ENDABASH;ARUSHA;KARATU;ENDABASH;GOVERNMENT;-3.586628;35.603035;;;;;
EM.1771;PS0103-011;ENDALLAH;ARUSHA;KARATU;ENDAMARARIEK;GOVERNMENT;-3.4599077;35.7383688;;;;;
EM.3410;PS0103-012;ENDAMAGHANG;ARUSHA;KARATU;ENDAMAGHANG;GOVERNMENT;-3.566362;35.656362;;;;;
EM.1175;PS0103-013;ENDAMARARIEK;ARUSHA;KARATU;ENDAMARARIEK;GOVERNMENT;-3.5014567;35.6707933;;;;;
EM.6952;PS0103-014;ENDONYAWET;ARUSHA;KARATU;BUGER;GOVERNMENT;-3.387446;35.758772;;;;;
EM.3024;PS0103-015;ENDASHANGWET;ARUSHA;KARATU;DAA;GOVERNMENT;-3.3544275;35.6057739;;;;;
EM.3411;PS0103-016;GYEKRUM LAMBO;ARUSHA;KARATU;QURUS;GOVERNMENT;-3.3862616;35. 7049253;;;;;
EM.8430;PS0103-017;GENDAA;ARUSHA;KARATU;QURUS;GOVERNMENT;-3.397935;35.6898116;;;;;
EM.6953;PS0103-018;GETAMOCK;ARUSHA;KARATU;ENDAMARARIEK;GOVERNMENT;-3.5193351;35.7113572;;;;;
EM.4589;PS0103-019;GONGALI;ARUSHA;KARATU;QURUS;GOVERNMENT;-3.43207163;35.6713463;;;;;
EM.3412;PS0103-020;GYETIGHI;ARUSHA;KARATU;OLDEANI;GOVERNMENT;-3.1940445;35.3350964;;;;;
EM.5794;PS0103-021;KAINAM RHOTIA;ARUSHA;KARATU;RHOTIA;GOVERNMENT;-3.3552296;35.726875;;;;;
EM.8202;PS0103-022;KAMBI YA FARU;ARUSHA;KARATU;KANSAY;GOVERNMENT;-3.6223766;35.6133899;;;;;
EM.2102;PS0103-023;KAMBI YA NYOKA;ARUSHA;KARATU;GANAKO;GOVERNMENT;-3.2410232;35.4898487;;;;;
EM.807;PS0103-024;KANSAY;ARUSHA;KARATU;KANSAY;GOVERNMENT;-3.6697136;35.5949753;;;;;
EM.737;PS0103-025;KARATU;ARUSHA;KARATU;KARATU;GOVERNMENT;-3.2052234;35.4140872;;;;;
EM.2451;PS0103-026;KILIMAMOJA;ARUSHA;KARATU;RHOTIA;GOVERNMENT;-3.3696785;35.8072205;;;;;
EM.5795;PS0103-027;KILIMATEMBO;ARUSHA;KARATU;RHOTIA;GOVERNMENT;-3.31137184;35.7605735;;;;;
EM.2533;PS0103-028;KITETE KCU;ARUSHA;KARATU;MBULUMBULU;GOVERNMENT;-3.221795;35.896697;;;;;
EM.1458;PS0103-029;KITETE WS;ARUSHA;KARATU;MBULUMBULU;GOVERNMENT;-3.2470652;35.8330285;;;;;
EM.7610;PS0103-030;LAGHANGARER;ARUSHA;KARATU;MANG’OLA;GOVERNMENT;-3.5416766;35.3121166;;;;;
EM.7611;PS0103-031;LAJA;ARUSHA;KARATU;KANSAY;GOVERNMENT;-3.6381757;35.5615466;;;;;
EM.4590;PS0103-032;LOSITETE;ARUSHA;KARATU;MBULUMBULU;GOVERNMENT;-3.184095;35.9055433;;;;;
EM.1565;PS0103-033;MANGOLA CHINI;ARUSHA;KARATU;MANG’OLA;GOVERNMENT;-3.5275966;35.3329883;;;;;
EM.2103;PS0103-034;MANG'OLA JUU;ARUSHA;KARATU;DAA;GOVERNMENT;-3.3478801;35.6705611;;;;;
EM.5796;PS0103-035;MANG'OLA NT;ARUSHA;KARATU;BARAY;GOVERNMENT;-3.55215;35.3398983;;;;;
EM.995;PS0103-036;MBULUMBULU;ARUSHA;KARATU;MBULUMBULU;GOVERNMENT;-3.269838;35.794488;;;;;
EM.996;PS0103-037;OLDEANI;ARUSHA;KARATU;OLDEANI;GOVERNMENT;-3.3534883;35.5583933;;;;;
EM.7612;PS0103-038;QANGDEND;ARUSHA;KARATU;BARAY;GOVERNMENT;-3.5026867;35.3943983;;;;;
EM.8055;PS0103-039;QARU;ARUSHA;KARATU;ENDABASH;GOVERNMENT;-3.5204199;35.6199713;;;;;
EM.10553;PS0103-040;QURUS;ARUSHA;KARATU;QURUS;GOVERNMENT;-3.435155;35.6095633;;;;;
EM.2345;PS0103-041;RHOTIA;ARUSHA;KARATU;RHOTIA;GOVERNMENT;-3.3084634;35.732386;;;;;
EM.3025;PS0103-042;SUMAWE;ARUSHA;KARATU;GANAKO;GOVERNMENT;-3.329641;35.663039;;;;;
EM.7614;PS0103-043;TLOMA;ARUSHA;KARATU;GANAKO;GOVERNMENT;-3.3319405;35.6772757;;;;;
EM.7613;PS0103-044;SLAHHAMO;ARUSHA;KARATU;MBULUMBULU;GOVERNMENT;-3.230485;35.84233;;;;;
EM.8823;PS0103-045;MIDABINI;ARUSHA;KARATU;DAA;GOVERNMENT;-3.4534516;35.5119099;;;;;
EM.8752;PS0103-046;NJIA PANDA;ARUSHA;KARATU;QURUS;GOVERNMENT;-3.3674966;35.6086116;;;;;
EM.9050;PS0103-047;KIBAONI;ARUSHA;KARATU;RHOTIA;GOVERNMENT;-3.369537;35.797881;;;;;
EM.9232;PS0103-048;MAKHOROMBA;ARUSHA;KARATU;DAA;GOVERNMENT;-3.382612;35.436621;;;;;
EM.9335;PS0103-049;MENDAY;ARUSHA;KARATU;QURUS;GOVERNMENT;-3.3906149;35.6173666;;;;;
EM.9582;PS0103-050;QARU LAMBO;ARUSHA;KARATU;ENDABASH;GOVERNMENT;-3.5322416;35.6509016;;;;;
EM.9580;PS0103-051;EYASI;ARUSHA;KARATU;MANG’OLA;GOVERNMENT;-3.5056132;35.3850609;;;;;
EM.10032;PS0103-052;MASSABEDA;ARUSHA;KARATU;ENDAMARARIEK;GOVERNMENT;-3.3583888;35.6237304;;;;;
EM.9581;PS0103-053;KAMBI YA SIMBA;ARUSHA;KARATU;MBULUMBULU;GOVERNMENT;-3.2824133;35.8135916;;;;;
EM.10029;PS0103-054;AYALALIYO;ARUSHA;KARATU;BUGER;GOVERNMENT;-3.657525;35.6475333;;;;;
EM.10030;PS0103-055;BARAY KHUSUMAY;ARUSHA;KARATU;ENDAMARARIEK;GOVERNMENT;-3.3605848;35.6019046;;;;;
EM.10031;PS0103-056;MARERA;ARUSHA;KARATU;RHOTIA;GOVERNMENT;-3.3058476;35.7154078;;;;;
EM.10269;PS0103-057;MEALI;ARUSHA;KARATU;OLDEANI;GOVERNMENT;-3.3745017;35.663096;;;;;
EM.10268;PS0103-058;DIRANGW;ARUSHA;KARATU;MBULUMBULU;GOVERNMENT;-3.3673688;35.8576511;;;;;
EM.10413;PS0103-059;ENDABASH MANGISA;ARUSHA;KARATU;ENDABASH;GOVERNMENT;-3.560229;35.628563;;;;;
EM.10414;PS0103-060;MAGESHO;ARUSHA;KARATU;QURUS;GOVERNMENT;-3.4274266;35.6456866;;;;;
EM.10554;PS0103-061;SHANGIT;ARUSHA;KARATU;ENDAMARARIEK;GOVERNMENT;-3.4542487;35.6924584;;;;;
EM.10415;PS0103-062;QARU SARAMAY;ARUSHA;KARATU;ENDABASH;GOVERNMENT;-3.5216133;35.6009966;;;;;
EM.10412;PS0103-063;ENDABASH LAJA;ARUSHA;KARATU;ENDABASH;GOVERNMENT;-3.5718799;35.611722;;;;;
EM.10552;PS0103-064;MIKOCHENI;ARUSHA;KARATU;ENDAMAGHANG;GOVERNMENT;-3.5663621;35.656362;;;;;
EM.13516;PS0103-065;ENDORO;ARUSHA;KARATU;KARATU;GOVERNMENT;-3.3355454;35.4039434;;;;;
EM.10717;PS0103-066;GIDBASSO;ARUSHA;KARATU;ENDAMARARIEK;GOVERNMENT;-3.5016491;35.6462815;;;;;
EM.10718;PS0103-067;GILALA;ARUSHA;KARATU;RHOTIA;GOVERNMENT;-3.2876566;35.7634466;;;;;
EM.10719;PS0103-068;MANGOLA BARAZANI;ARUSHA;KARATU;MANG’OLA;GOVERNMENT;-3.5152533;35.3427016;;;;;
EM.10720;PS0103-069;MATALA;ARUSHA;KARATU;BARAY;GOVERNMENT;-3.876445;35.751295;;;;;
EM.10721;PS0103-070;MBUGANYEKUNDU;ARUSHA;KARATU;BARAY;GOVERNMENT;-3.5364116;35.3770483;;;;;
EM.10722;PS0103-071;UMBANGW;ARUSHA;KARATU;KANSAY;GOVERNMENT;-3.6268849;35.5338183;;;;;
EM.11570;PS0103-072;GYEKRUM ARUSHA;ARUSHA;KARATU;KARATU;GOVERNMENT;-3.2110512;35.4035238;;;;;
EM.11089;PS0103-073;KINIHHE;ARUSHA;KARATU;QURUS;GOVERNMENT;-3.3592821;35.6597991;;;;;
EM.12387;PS0103-074;AKKO;ARUSHA;KARATU;RHOTIA;GOVERNMENT;-3.3227916;35.7329516;;;;;
EM.12392;PS0103-075;HAREABI;ARUSHA;KARATU;RHOTIA;GOVERNMENT;-3.3416991;35.743095;;;;;
EM.12395;PS0103-076;UMOJA;ARUSHA;KARATU;RHOTIA;GOVERNMENT;-3.3061424;35.7324942;;;;;
EM.12393;PS0103-077;MAHHAHA;ARUSHA;KARATU;ENDAMARARIEK;GOVERNMENT;-3.5109949;35.7085353;;;;;
EM.11088;PS0103-078;HAYDESH;ARUSHA;KARATU;BARAY;GOVERNMENT;-3.4745417;35.4669533;;;;;
EM.12394;PS0103-079;SHAURI AWAKI;ARUSHA;KARATU;ENDAMARARIEK;GOVERNMENT;-3.5109949;35.7085353;;;;;
EM.12391;PS0103-080;HARAA;ARUSHA;KARATU;KANSAY;GOVERNMENT;-3.6602497;35.5766187;;;;;
EM.12389;PS0103-081;ENDAGESH;ARUSHA;KARATU;KANSAY;GOVERNMENT;-3.64922816;35.5859583;;;;;
EM.17276;PS0103-082;SABASABA;ARUSHA;KARATU;MBULUMBULU;GOVERNMENT;-3.2760353;35.8664326;;;;;
EM.12388;PS0103-083;BONDE LA FARU;ARUSHA;KARATU;MBULUMBULU;GOVERNMENT;-3.222795;35.876697;;;;;
EM.12390;PS0103-084;GAMDI;ARUSHA;KARATU;BUGER;GOVERNMENT;-3.6568883;35.647533;;;;;
EM.14576;PS0103-086;ANTSA;ARUSHA;KARATU;MANG’OLA;GOVERNMENT;-3.5227733;35.34457;;;;;
EM.13040;PS0103-087;DUUMA;ARUSHA;KARATU;ENDAMARARIEK;GOVERNMENT;-3.5194717;35.6608983;;;;;
EM.14578;PS0103-088;ENDESH;ARUSHA;KARATU;BARAY;GOVERNMENT;-3.7911399;34.9385966;;;;;
EM.14582;PS0103-089;NJORO;ARUSHA;KARATU;BARAY;GOVERNMENT;-3.8880749;35.81073;;;;;
EM.13517;PS0103-090;TUMAINI JUNIOR;ARUSHA;KARATU;KARATU;NON GOVERNMENT;-3.209457;35.4017204;;;;;
EM.14579;PS0103-091;HAYMU;ARUSHA;KARATU;GANAKO;GOVERNMENT;-3.3226262;35.7106732;;;;;
EM.13891;PS0103-092;JUHUDI;ARUSHA;KARATU;RHOTIA;GOVERNMENT;-3.368767;35.734148;;;;;
EM.13890;PS0103-093;GEER;ARUSHA;KARATU;KANSAY;GOVERNMENT;-3.6319733;35.6047266;;;;;
EM.14581;PS0103-094;MARMO;ARUSHA;KARATU;MBULUMBULU;GOVERNMENT;-3.250015;35.838909;;;;;
EM.13892;PS0103-095;MCHANGANI;ARUSHA;KARATU;ENDAMARARIEK;GOVERNMENT;-3.3583888;35.6237304;;;;;
EM.13893;PS0103-096;MOHEDAGEW;ARUSHA;KARATU;BARAY;GOVERNMENT;-3.7611833;35.0093833;;;;;
EM.14757;PS0103-097;COSTIGAN;ARUSHA;KARATU;KARATU;NON GOVERNMENT;-3.3417758;35.6780716;;;;;
EM.14978;PS0103-099;ASKOFU HHANDO;ARUSHA;KARATU;GANAKO;GOVERNMENT;-3.3257732;35.7061744;;;;;
EM.14577;PS0103-100;ASLIN;ARUSHA;KARATU;RHOTIA;GOVERNMENT;-3.3160236;35.7828123;;;;;
EM.14580;PS0103-101;MARAR;ARUSHA;KARATU;RHOTIA;GOVERNMENT;-3.3506083;35.7877456;;;;;
EM.15200;PS0103-102;MURUS;ARUSHA;KARATU;BARAY;GOVERNMENT;-3.6445576;35.5733378;;;;;
EM.17001;PS0103-106;YAMAWEEGA;ARUSHA;KARATU;BARAY;NON GOVERNMENT;-3.8646933;34.8868567;;;;;
EM.7615;PS0104-001;ELANG'ATADAPASH;ARUSHA;LONGIDO;ELANG’ATADAPASH;GOVERNMENT;-2.9333333;36.2333333;;;;;
EM.9133;PS0104-002;ELERAI;ARUSHA;LONGIDO;OLMOLOG;GOVERNMENT;-2.9166666;37.0666666;;;;;
EM.3413;PS0104-003;ENGARENAIBOR;ARUSHA;LONGIDO;ENGARENAIBOR;GOVERNMENT;-2.5166666;36.4833333;;;;;
EM.7616;PS0104-004;ENGIKARET;ARUSHA;LONGIDO;ENGIKARET;GOVERNMENT;-3.0333333;36.633333;;;;;
EM.6954;PS0104-005;GELAIBOMBA;ARUSHA;LONGIDO;GELAI MEIRUGOI;GOVERNMENT;-2.7166666;36.1;;;;;
EM.6955;PS0104-006;GELAILUMBWA;ARUSHA;LONGIDO;GELAI LUMBWA;GOVERNMENT;-2.6;36.1833333;;;;;
EM.7617;PS0104-007;ILORIENITO;ARUSHA;LONGIDO;ILORIENITO;GOVERNMENT;-2.8666666;36.1833333;;;;;
EM.4037;PS0104-008;KAMWANGA;ARUSHA;LONGIDO;KAMWANGA;GOVERNMENT;-2.8666666;37.3521317;;;;;
EM.3026;PS0104-009;KETUMBEINE;ARUSHA;LONGIDO;KETUMBEINE;GOVERNMENT;-2.8166666;36.3;;;;;
EM.7618;PS0104-010;KIMOKOUWA;ARUSHA;LONGIDO;KIMOKOUWA;GOVERNMENT;-2.6333333;36.7;;;;;
EM.9336;PS0104-011;KISERIAN;ARUSHA;LONGIDO;ENGIKARET;GOVERNMENT;-2.8333333;36.5166666;;;;;
EM.6957;PS0104-012;LERANG'WA;ARUSHA;LONGIDO;OLMOLOG;GOVERNMENT;-2.8333333;37.1833333;;;;;
EM.474;PS0104-013;LONGIDO;ARUSHA;LONGIDO;LONGIDO;GOVERNMENT;-2.6833333;36.7;;;;;
EM.8753;PS0104-014;MATALE;ARUSHA;LONGIDO;MATALE A;GOVERNMENT;-2.4333333;36.4166666;;;;;
EM.8056;PS0104-015;MUNDARARA;ARUSHA;LONGIDO;MUNDARARA;GOVERNMENT;-2.6166666;36.6;;;;;
EM.3745;PS0104-016;NAMANGA;ARUSHA;LONGIDO;NAMANGA;GOVERNMENT;-2.55;36.7833333;;;;;
EM.6958;PS0104-017;NGEREYANI;ARUSHA;LONGIDO;TINGATINGA;GOVERNMENT;-2.9833333;36.8553366;;;;;
EM.3253;PS0104-018;OLMOLOG;ARUSHA;LONGIDO;OLMOLOG;GOVERNMENT;-2.8666666;37.1166666;;;;;
EM.6959;PS0104-019;SINYA;ARUSHA;LONGIDO;SINYA;GOVERNMENT;-2.7833333;36.95;;;;;
EM.3254;PS0104-020;TINGATINGA;ARUSHA;LONGIDO;TINGATINGA;GOVERNMENT;-2.9666666;36.9560616;;;;;
EM.6956;PS0104-021;KITENDENI;ARUSHA;LONGIDO;KAMWANGA;GOVERNMENT;-2.8505683;37.2333333;;;;;
EM.10416;PS0104-022;LOSIRWA;ARUSHA;LONGIDO;ILORIENITO;GOVERNMENT;-2.8333333;36.36;;;;;
EM.10555;PS0104-023;EORENDEKE;ARUSHA;LONGIDO;KIMOKOUWA;GOVERNMENT;-2.55;36.7666666;;;;;
EM.10723;PS0104-024;IRKASWA;ARUSHA;LONGIDO;KAMWANGA;GOVERNMENT;-2.8666666;37.2042217;;;;;
EM.11090;PS0104-025;NOONDOTO;ARUSHA;LONGIDO;NOONDOTO;GOVERNMENT;-2.9833333;36.2833333;;;;;
EM.10724;PS0104-026;OLCHORONYOKIE;ARUSHA;LONGIDO;ELANG’ATADAPASH;GOVERNMENT;-2.9;36.25;;;;;
EM.11572;PS0104-027;NGOSWAK;ARUSHA;LONGIDO;ENGARENAIBOR;GOVERNMENT;-2.5;36.4833333;;;;;
EM.11573;PS0104-028;SINONIK;ARUSHA;LONGIDO;ENGARENAIBOR;GOVERNMENT;-2.5;36.5833333;;;;;
EM.11571;PS0104-029;EMURTOTO;ARUSHA;LONGIDO;MATALE A;GOVERNMENT;-2.35;36.3666666;;;;;
EM.13895;PS0104-030;KITARINI;ARUSHA;LONGIDO;MUNDARARA;GOVERNMENT;-2.6166666;36.45;;;;;
EM.13894;PS0104-031;ABERNATHY;ARUSHA;LONGIDO;LONGIDO;NON GOVERNMENT;-2.7166666;36.7;;;;;
EM.13518;PS0104-032;IRNG'ONG'WEN;ARUSHA;LONGIDO;MATALE A;GOVERNMENT;-2.3833333;36.4833333;;;;;
EM.13896;PS0104-033;MAGADINI;ARUSHA;LONGIDO;GELAI MEIRUGOI;GOVERNMENT;-3.6166666;36;;;;;
EM.13041;PS0104-034;ST.THERESA;ARUSHA;LONGIDO;KIMOKOUWA;NON GOVERNMENT;-2.55;36.7833333;;;;;
EM.15205;PS0104-035;ORBOMBA;ARUSHA;LONGIDO;ORBOMBA;GOVERNMENT;-2.7166666;36.6666666;;;;;
EM.15201;PS0104-036;BUGURUNI;ARUSHA;LONGIDO;NAMANGA;GOVERNMENT;-2.55;36.7833333;;;;;
EM.14758;PS0104-037;MAIROWA INTEGRITY;ARUSHA;LONGIDO;ENGARENAIBOR;NON GOVERNMENT;-2.5333333;36.4833333;;;;;
EM.15203;PS0104-042;LOPOLOSEKI;ARUSHA;LONGIDO;KETUMBEINE;GOVERNMENT;-2.7833333;36.3;;;;;
EM.15204;PS0104-043;MANGULA;ARUSHA;LONGIDO;KETUMBEINE;GOVERNMENT;-2.85;36.3166666;;;;;
EM.1176;PS0105-001;AKERI;ARUSHA;MERU;AKHERI;GOVERNMENT;-3.3461;36.77586;;;;;
EM.11091;PS0105-002;AMANI;ARUSHA;MERU;USARIVER;NON GOVERNMENT;-3.37221;36.84475;;;;;
EM.2104;PS0105-003;AMBURENI;ARUSHA;MERU;AMBURENI;GOVERNMENT;-3.36451;36.75255;;;;;
EM.12396;PS0105-004;CHEMCHEM;ARUSHA;MERU;KIKATITI;GOVERNMENT;-3.38521;36.93892;;;;;
EM.3746;PS0105-005;DOLLY;ARUSHA;MERU;MARORONI;GOVERNMENT;-3.42892;36.87966;;;;;
EM.11092;PS0105-006;EMANUEL;ARUSHA;MERU;NGARENANYUKI;GOVERNMENT;-3.17086;36.9054;;;;;
EM.12397;PS0105-007;ENGATANI;ARUSHA;MERU;MAJENGO;GOVERNMENT;-3.50994;36.99998;;;;;
EM.7619;PS0105-008;ETINGARE;ARUSHA;MERU;MARUVANGO;GOVERNMENT;-3.21742;36.96405;;;;;
EM.11093;PS0105-010;ILKIRIMUNI;ARUSHA;MERU;NGARENANYUKI;GOVERNMENT;-3.17076;36.90542;;;;;
EM.4038;PS0105-011;IMBASENI;ARUSHA;MERU;IMBASENI;GOVERNMENT;-3.34221;36.89029;;;;;
EM.6960;PS0105-012;KANDASHE;ARUSHA;MERU;LEGURUKI;GOVERNMENT;-3.20423;36.93916;;;;;
EM.1459;PS0105-013;KARANGAI;ARUSHA;MERU;KIKWE;GOVERNMENT;-3.47449;36.86588;;;;;
EM.2346;PS0105-014;KIKATITI;ARUSHA;MERU;KIKATITI;GOVERNMENT;-3.40168;36.94381;;;;;
EM.4039;PS0105-015;KIKWE;ARUSHA;MERU;KIKWE;GOVERNMENT;-3.42414;36.82788;;;;;
EM.12399;PS0105-016;KILIMANI;ARUSHA;MERU;USARIVER;GOVERNMENT;-3.36895;36.84644;;;;;
EM.604;PS0105-017;KILINGA;ARUSHA;MERU;SONGORO;GOVERNMENT;-3.31541;36.83574;;;;;
EM.11094;PS0105-018;KIMOSONU;ARUSHA;MERU;UWIRO;GOVERNMENT;-3.12764;36.86704;;;;;
EM.11095;PS0105-019;KIMUNDO;ARUSHA;MERU;NKOARISAMBU;GOVERNMENT;-3.35069;36.78198;;;;;
EM.1940;PS0105-020;KING'ORI;ARUSHA;MERU;KING'ORI;GOVERNMENT;-3.30435;36.98944;;;;;
EM.4592;PS0105-021;KITEFU;ARUSHA;MERU;MAJI YA CHAI;GOVERNMENT;-3.39129;36.90137;;;;;
EM.4591;PS0105-022;KISIMIRI CHINI;ARUSHA;MERU;UWIRO;GOVERNMENT;-3.16683;36.81672;;;;;
EM.8754;PS0105-023;KISIMIRI JUU;ARUSHA;MERU;UWIRO;GOVERNMENT;-3.14948;36.77242;;;;;
EM.4040;PS0105-024;KOLILA;ARUSHA;MERU;MALULA;GOVERNMENT;-3.33539;37.03922;;;;;
EM.4593;PS0105-025;KWA TULELE;ARUSHA;MERU;KING'ORI;GOVERNMENT;-3.27494;36.97886;;;;;
EM.4594;PS0105-026;KWA UGORO;ARUSHA;MERU;MARORONI;GOVERNMENT;-3.46656;36.87661;;;;;
EM.2211;PS0105-027;LEGANGA;ARUSHA;MERU;USARIVER;GOVERNMENT;-3.36987;36.84684;;;;;
EM.1772;PS0105-028;LEGURUKI;ARUSHA;MERU;MARUVANGO;GOVERNMENT;-3.25452;36.94741;;;;;
EM.7620;PS0105-029;LERAI;ARUSHA;MERU;MAJI YA CHAI;GOVERNMENT;-3.34052;36.91476;;;;;
EM.9051;PS0105-030;LOSITETI;ARUSHA;MERU;MAKIBA;GOVERNMENT;-3.47392;36.9523;;;;;
EM.3027;PS0105-031;MAJENGO;ARUSHA;MERU;MAJENGO;GOVERNMENT;-3.48708;37.01328;;;;;
EM.11576;PS0105-032;MAJI YA CHAI;ARUSHA;MERU;MAJI YA CHAI;GOVERNMENT;-3.36177;36.91515;;;;;
EM.11096;PS0105-033;MAKIBA;ARUSHA;MERU;MAKIBA;GOVERNMENT;-3.53357;36.96211;;;;;
EM.1177;PS0105-034;MAKUMIRA;ARUSHA;MERU;POLI;GOVERNMENT;-3.35719;36.82574;;;;;
EM.10417;PS0105-035;MALULA;ARUSHA;MERU;MALULA;GOVERNMENT;-3.37189;37.02258;;;;;
EM.5797;PS0105-036;MANYATA;ARUSHA;MERU;USARIVER;GOVERNMENT;-3.41891;36.84597;;;;;
EM.2756;PS0105-037;MARORONI;ARUSHA;MERU;MARORONI;GOVERNMENT;-3.43609;36.90921;;;;;
EM.3747;PS0105-038;MARUANGO;ARUSHA;MERU;MARUVANGO;GOVERNMENT;-3.24996;36.98722;;;;;
EM.8357;PS0105-039;MAWENI;ARUSHA;MERU;KIKWE;GOVERNMENT;-3.45494;36.85388;;;;;
EM.10725;PS0105-040;MAREU;ARUSHA;MERU;KING'ORI;GOVERNMENT;-3.31654;36.97366;;;;;
EM.2347;PS0105-041;MAVINUNI;ARUSHA;MERU;AKHERI;GOVERNMENT;-3.35844;36.77546;;;;;
EM.1460;PS0105-042;MBUGUNI;ARUSHA;MERU;MBUGUNI;GOVERNMENT;-3.54292;36.91769;;;;;
EM.7621;PS0105-044;MFULONY;ARUSHA;MERU;NKOARISAMBU;GOVERNMENT;-3.33491;36.77079;;;;;
EM.11097;PS0105-045;MIGANDINI;ARUSHA;MERU;MARORONI;GOVERNMENT;-3.4419;36.8893;;;;;
EM.1566;PS0105-046;MIKUNGANI;ARUSHA;MERU;MBUGUNI;GOVERNMENT;-3.56574;36.95368;;;;;
EM.4041;PS0105-047;MIKUUNI;ARUSHA;MERU;MALULA;GOVERNMENT;-3.34516;37.00078;;;;;
EM.5798;PS0105-048;MIRIRINI;ARUSHA;MERU;LEGURUKI;GOVERNMENT;-3.22491;36.92253;;;;;
EM.3748;PS0105-049;MOIVARO;ARUSHA;MERU;AMBURENI;GOVERNMENT;-3.3738;36.75595;;;;;
EM.10895;PS0105-050;MOWARA;ARUSHA;MERU;MARUVANGO;GOVERNMENT;-3.23475;36.98478;;;;;
EM.4595;PS0105-051;MSITU WA MBOGO;ARUSHA;MERU;SHAMBARAI BURKA;GOVERNMENT;-3.52412;36.88332;;;;;
EM.15937;PS0105-052;MARIADO;ARUSHA;MERU;POLI;NON GOVERNMENT;-3.38061;36.8446;;;;;
EM.8203;PS0105-053;MULALA;ARUSHA;MERU;SONGORO;GOVERNMENT;-3.31997;36.82991;;;;;
EM.9052;PS0105-054;MWAKENY;ARUSHA;MERU;NGARENANYUKI;GOVERNMENT;-3.1919;36.83618;;;;;
EM.9459;PS0105-055;NAMBALA;ARUSHA;MERU;KIKWE;GOVERNMENT;-3.39584;36.80696;;;;;
EM.6961;PS0105-056;NASULA;ARUSHA;MERU;NGARENANYUKI;GOVERNMENT;-3.21638;36.86165;;;;;
EM.352;PS0105-057;NKOANRUA;ARUSHA;MERU;NKOANRUA;GOVERNMENT;-3.3502;36.76664;;;;;
EM.1567;PS0105-058;NDOOMBO;ARUSHA;MERU;NKOARISAMBU;GOVERNMENT;-3.32536;36.77525;;;;;
EM.4042;PS0105-059;NGABOBO;ARUSHA;MERU;NGABOBO;GOVERNMENT;-3.11108;36.89395;;;;;
EM.2105;PS0105-060;NGARENANYUKI;ARUSHA;MERU;UWIRO;GOVERNMENT;-3.14979;36.8403;;;;;
EM.1178;PS0105-061;NGYANI;ARUSHA;MERU;NKOARANGA;GOVERNMENT;-3.33608;36.82594;;;;;
EM.4043;PS0105-062;NGYEKU;ARUSHA;MERU;KIKATITI;GOVERNMENT;-3.34634;36.9234;;;;;
EM.6962;PS0105-063;NKOAMANGASHA;ARUSHA;MERU;KIKATITI;GOVERNMENT;-3.38085;36.97173;;;;;
EM.2106;PS0105-064;NKOAKIRIKA;ARUSHA;MERU;POLI;GOVERNMENT;-3.34052;36.80011;;;;;
EM.4597;PS0105-065;NKOANSIYO;ARUSHA;MERU;KING'ORI;GOVERNMENT;-3.25923;37.01685;;;;;
EM.303;PS0105-066;NKOARANGA;ARUSHA;MERU;NKOARANGA;GOVERNMENT;-3.33608;36.82594;;;;;
EM.2212;PS0105-067;NKOANEKOLI;ARUSHA;MERU;NKOANEKOLI;GOVERNMENT;-3.33469;36.85623;;;;;
EM.7622;PS0105-068;NGONGONGARE;ARUSHA;MERU;IMBASENI;GOVERNMENT;-3.31638;36.88242;;;;;
EM.4596;PS0105-069;NGURDOTO;ARUSHA;MERU;MAJI YA CHAI;GOVERNMENT;-3.32781;36.91238;;;;;
EM.5799;PS0105-070;NTUWE;ARUSHA;MERU;MALULA;GOVERNMENT;-3.29504;37.01963;;;;;
EM.8057;PS0105-071;NSHUPU;ARUSHA;MERU;NKOARANGA;GOVERNMENT;-3.34923;36.83427;;;;;
EM.3255;PS0105-072;NKOASENGA;ARUSHA;MERU;LEGURUKI;GOVERNMENT;-3.2511;36.91169;;;;;
EM.5800;PS0105-073;OLDEVES;ARUSHA;MERU;SHAMBARAI BURKA;GOVERNMENT;-3.56243;36.89693;;;;;
EM.2107;PS0105-074;OLKUG'WADO;ARUSHA;MERU;NGARENANYUKI;GOVERNMENT;-3.17037;36.86645;;;;;
EM.4598;PS0105-075;PATANDI;ARUSHA;MERU;AKHERI;GOVERNMENT;-3.36954;36.78674;;;;;
EM.3028;PS0105-076;PATANUMBE;ARUSHA;MERU;MAKIBA;GOVERNMENT;-3.51591;36.94673;;;;;
EM.3414;PS0105-077;POLI;ARUSHA;MERU;POLI;GOVERNMENT;-3.35203;36.80303;;;;;
EM.5801;PS0105-078;SAMARIA;ARUSHA;MERU;MARORONI;GOVERNMENT;-3.43281;36.97215;;;;;
EM.1461;PS0105-079;SAKILA;ARUSHA;MERU;KIKATITI;GOVERNMENT;-3.34562;36.95773;;;;;
EM.11098;PS0105-080;SANGANANU;ARUSHA;MERU;NKOANEKOLI;GOVERNMENT;-3.34333;36.85142;;;;;
EM.2108;PS0105-081;SEELA;ARUSHA;MERU;SEELA SING'ISI;GOVERNMENT;-3.33093;36.7858;;;;;
EM.10556;PS0105-082;SINAI;ARUSHA;MERU;LEGURUKI;GOVERNMENT;-3.19396;36.90686;;;;;
EM.1462;PS0105-083;SING'ISI;ARUSHA;MERU;SEELA SING'ISI;GOVERNMENT;-3.31326;36.792;;;;;
EM.2860;PS0105-084;SHISHTONY;ARUSHA;MERU;MARUVANGO;GOVERNMENT;-3.23175;36.94874;;;;;
EM.2213;PS0105-085;SONGORO;ARUSHA;MERU;SONGORO;GOVERNMENT;-3.31784;36.81653;;;;;
EM.808;PS0105-086;SURA;ARUSHA;MERU;SONGORO;GOVERNMENT;-3.32453;36.7974;;;;;
EM.6963;PS0105-087;SURUMALA;ARUSHA;MERU;KIKATITI;GOVERNMENT;-3.36489;36.93792;;;;;
EM.9134;PS0105-088;TANZANIA ADVENTIST;ARUSHA;MERU;IMBASENI;NON GOVERNMENT;-3.22156;36.88163;;;;;
EM.8897;PS0105-089;TENGERU;ARUSHA;MERU;AKHERI;GOVERNMENT;-3.38018;36.80182;;;;;
EM.17007;PS0105-090;TUVAILA;ARUSHA;MERU;MAJI YA CHAI;GOVERNMENT;-3.36398;36.89997;;;;;
EM.1568;PS0105-091;ULONG'A;ARUSHA;MERU;NKOANRUA;GOVERNMENT;-3.33618;36.75756;;;;;
EM.11099;PS0105-092;UPENDO;ARUSHA;MERU;KING'ORI;GOVERNMENT;-3.28055;37.00745;;;;;
EM.4044;PS0105-093;URAKI;ARUSHA;MERU;POLI;GOVERNMENT;-3.38502;36.8329;;;;;
EM.3256;PS0105-094;URISHO;ARUSHA;MERU;SONGORO;GOVERNMENT;-3.32175;36.81051;;;;;
EM.11583;PS0105-095;USA RIVER;ARUSHA;MERU;USARIVER;GOVERNMENT;-3.36393;36.85551;;;;;
EM.10896;PS0105-096;USA RIVER ACADEMY;ARUSHA;MERU;USARIVER;NON GOVERNMENT;-3.3585;36.86495;;;;;
EM.5802;PS0105-097;VALESKA;ARUSHA;MERU;MAKIBA;GOVERNMENT;-3.51499;36.91898;;;;;
EM.11579;PS0105-099;NAZARETI;ARUSHA;MERU;MARORONI;GOVERNMENT;-3.46159;36.91671;;;;;
EM.11574;PS0105-100;ENGEJISOSIA;ARUSHA;MERU;MALULA;GOVERNMENT;-3.30941;37.02618;;;;;
EM.11575;PS0105-101;LENDOIYA;ARUSHA;MERU;NGARENANYUKI;GOVERNMENT;-3.19516;36.89053;;;;;
EM.11577;PS0105-102;MBORENY;ARUSHA;MERU;KING'ORI;GOVERNMENT;-3.27646;37.03239;;;;;
EM.11578;PS0105-103;MIEMBENI;ARUSHA;MERU;MBUGUNI;GOVERNMENT;-3.55709;36.93161;;;;;
EM.11580;PS0105-104;NGANANA;ARUSHA;MERU;KIKWE;GOVERNMENT;-3.4048;36.79421;;;;;
EM.11581;PS0105-105;NOSEIYA;ARUSHA;MERU;LEGURUKI;GOVERNMENT;-3.19396;36.91396;;;;;
EM.11582;PS0105-106;NRUMANGENI;ARUSHA;MERU;MALULA;GOVERNMENT;-3.35999;37.03252;;;;;
EM.15412;PS0105-108;USHILI;ARUSHA;MERU;SONGORO;GOVERNMENT;-3.32316;36.79617;;;;;
EM.14322;PS0105-109;DAVIS PREPARATORY;ARUSHA;MERU;AMBURENI;NON GOVERNMENT;-3.36898;36.75682;;;;;
EM.12400;PS0105-110;KIWAWA;ARUSHA;MERU;IMBASENI;GOVERNMENT;-3.3381;36.82532;;;;;
EM.12398;PS0105-111;KALOLENI;ARUSHA;MERU;MAJENGO;GOVERNMENT;-3.46107;37.0404;;;;;
EM.14324;PS0105-112;HARADALI;ARUSHA;MERU;AMBURENI;NON GOVERNMENT;-3.36494;36.76423;;;;;
EM.12401;PS0105-113;MAUA ACADEMY;ARUSHA;MERU;NKOARANGA;NON GOVERNMENT;-3.35556;36.84117;;;;;
EM.12402;PS0105-114;NURU;ARUSHA;MERU;KING'ORI;GOVERNMENT;-3.28688;36.99002;;;;;
EM.12403;PS0105-115;SLUYS ANDERSON;ARUSHA;MERU;KIKATITI;NON GOVERNMENT;-3.34285;36.96473;;;;;
EM.13043;PS0105-116;MUKURU;ARUSHA;MERU;UWIRO;GOVERNMENT;-3.1263;36.80268;;;;;
EM.13044;PS0105-117;SAVANA;ARUSHA;MERU;MARORONI;GOVERNMENT;-3.40918;36.99273;;;;;
EM.11100;PS0105-118;UPENDO ACADEMY;ARUSHA;MERU;USARIVER;NON GOVERNMENT;-3.37736;36.84352;;;;;
EM.14323;PS0105-119;ELIZABETH CENTRE;ARUSHA;MERU;MALULA;NON GOVERNMENT;-3.36568;37.05779;;;;;
EM.13519;PS0105-120;KIRENGA;ARUSHA;MERU;KING'ORI;GOVERNMENT;-3.29659;36.97886;;;;;
EM.13520;PS0105-121;MBAASENY;ARUSHA;MERU;MARUVANGO;GOVERNMENT;-3.23726;36.95727;;;;;
EM.14983;PS0105-122;MKOMBOZI;ARUSHA;MERU;MAJI YA CHAI;NON GOVERNMENT;-3.39446;36.89632;;;;;
EM.14325;PS0105-123;KIMANDAFU;ARUSHA;MERU;MAJI YA CHAI;GOVERNMENT;-3.38697;36.9249;;;;;
EM.15214;PS0105-124;TENGERU ENGLISH MEDIUM;ARUSHA;MERU;AKHERI;NON GOVERNMENT;-3.36141;36.78083;;;;;
EM.14984;PS0105-125;NGORIKA HAPPY WATOTO;ARUSHA;MERU;MAJI YA CHAI;NON GOVERNMENT;-3.34008;36.90759;;;;;
EM.14584;PS0105-126;YOUNGROSES;ARUSHA;MERU;USARIVER;NON GOVERNMENT;-3.36633;36.85555;;;;;
EM.14583;PS0105-127;TANZANITE;ARUSHA;MERU;MBUGUNI;GOVERNMENT;-3.54449;36.91684;;;;;
EM.14759;PS0105-129;NIRUVANDE;ARUSHA;MERU;LEGURUKI;NON GOVERNMENT;-3.23417;36.93069;;;;;
EM.15212;PS0105-130;PEACE MATUNDA;ARUSHA;MERU;NKOARISAMBU;NON GOVERNMENT;-3.33773;36.77367;;;;;
EM.15410;PS0105-131;BERNADETA;ARUSHA;MERU;NKOARANGA;NON GOVERNMENT;-3.35609;36.84322;;;;;
EM.15209;PS0105-132;ESTER MEMORIAL;ARUSHA;MERU;IMBASENI;NON GOVERNMENT;-3.31848;36.87289;;;;;
EM.15208;PS0105-133;CHERITH;ARUSHA;MERU;MAJI YA CHAI;NON GOVERNMENT;-3.37522;36.89516;;;;;
EM.15211;PS0105-138;NARIVA;ARUSHA;MERU;NGARENANYUKI;NON GOVERNMENT;-3.141;36.877228;;;;;
EM.15213;PS0105-141;ST. VIVIAN;ARUSHA;MERU;MAJI YA CHAI;NON GOVERNMENT;-3.39544;36.90667;;;;;
EM.16689;PS0105-143;NGURUMA;ARUSHA;MERU;AKHERI;GOVERNMENT;-3.37137;36.77364;;;;;
EM.6964;PS0106-001;ARKATANI;ARUSHA;MONDULI;SEPEKO;GOVERNMENT;-3.41909967;36.39256781;;;;;
EM.7623;PS0106-002;ENGARUKA CHINI;ARUSHA;MONDULI;ENGARUKA;GOVERNMENT;-3.000683;36.004758;;;;;
EM.605;PS0106-003;ENGARUKA JUU;ARUSHA;MONDULI;ENGARUKA;GOVERNMENT;-2.99772;35.962545;;;;;
EM.6965;PS0106-004;ENGUIKI;ARUSHA;MONDULI;MONDULI JUU;GOVERNMENT;-3.236976;36.427041;;;;;
EM.7624;PS0106-005;ESILALEI;ARUSHA;MONDULI;ESILALEI;GOVERNMENT;-3.4455756;35.9538537;;;;;
EM.3415;PS0106-006;KIGONGONI;ARUSHA;MONDULI;MIGUNGANI;GOVERNMENT;-3.38022432;35.88974448;;;;;
EM.2109;PS0106-007;LASHAINE;ARUSHA;MONDULI;LASHAINE;GOVERNMENT;-3.327807;36.439287;;;;;
EM.5803;PS0106-008;LENDIKINYA;ARUSHA;MONDULI;SEPEKO;GOVERNMENT;-3.345865;36.354322;;;;;
EM.6966;PS0106-009;LEPURKO;ARUSHA;MONDULI;LEPURKO;GOVERNMENT;-3.355327;36.226719;;;;;
EM.5804;PS0106-010;LOKISALE;ARUSHA;MONDULI;LOLKISALE;GOVERNMENT;-3.764467;36.419246;;;;;
EM.5805;PS0106-011;LOSIMINGORI;ARUSHA;MONDULI;LEPURKO;GOVERNMENT;-3.420302;36.181454;;;;;
EM.4599;PS0106-012;MAJENGO;ARUSHA;MONDULI;MAJENGO;GOVERNMENT;-3.348419;36.864657;;;;;
EM.3029;PS0106-013;MAKUYUNI;ARUSHA;MONDULI;MAKUYUNI;GOVERNMENT;-3.55356753;36.10001156;;;;;
EM.4045;PS0106-014;MANYARA RANCH;ARUSHA;MONDULI;MAKUYUNI;GOVERNMENT;-3.529363;36.0573423;;;;;
EM.3257;PS0106-015;MAZOEZI;ARUSHA;MONDULI;MONDULI MJINI;GOVERNMENT;-3.2988896;36.4510167;;;;;
EM.3416;PS0106-016;MBUYUNI;ARUSHA;MONDULI;MAKUYUNI;GOVERNMENT;-3.475023;36.203552;;;;;
EM.6967;PS0106-017;MESERANI CHINI;ARUSHA;MONDULI;MESERANI;GOVERNMENT;-3.524547;36.456151;;;;;
EM.6968;PS0106-018;MESERANI JUU;ARUSHA;MONDULI;MESERANI;GOVERNMENT;-3.437517;36.478776;;;;;
EM.8622;PS0106-019;MFEREJI;ARUSHA;MONDULI;MFEREJI;GOVERNMENT;-3.187362;36.458279;;;;;
EM.6969;PS0106-020;MLIMANI;ARUSHA;MONDULI;ENGUTOTO;GOVERNMENT;-3.300491;36.457169;;;;;
EM.6970;PS0106-021;MOITA BWAWANI;ARUSHA;MONDULI;MOITA;GOVERNMENT;-3.559917;36.600996;;;;;
EM.6971;PS0106-022;MOITA KILORITI;ARUSHA;MONDULI;MOITA;GOVERNMENT;-3.47627;36.569395;;;;;
EM.2214;PS0106-023;MONDULI JUU;ARUSHA;MONDULI;MONDULI JUU;GOVERNMENT;-3.25139;36.394253;;;;;
EM.6972;PS0106-024;MSWAKINI;ARUSHA;MONDULI;MSWAKINI;GOVERNMENT;-3.643355;36.014866;;;;;
EM.9135;PS0106-025;MTI MMOJA;ARUSHA;MONDULI;SEPEKO;GOVERNMENT;-3.40630738;36.3051309;;;;;
EM.2014;PS0106-026;MTOWAMBU;ARUSHA;MONDULI;MAJENGO;GOVERNMENT;-3.37265203;35.8514334;;;;;
EM.9136;PS0106-027;NAITI;ARUSHA;MONDULI;MAKUYUNI;GOVERNMENT;-3.509631;36.175669;;;;;
EM.8968;PS0106-028;NAITOLIA;ARUSHA;MONDULI;MSWAKINI;GOVERNMENT;-3.60275;36.089995;;;;;
EM.9137;PS0106-029;NDUKUSI;ARUSHA;MONDULI;LOLKISALE;GOVERNMENT;-3.679917;36.605433;;;;;
EM.6973;PS0106-030;NGARASH;ARUSHA;MONDULI;ENGUTOTO;GOVERNMENT;-3.2998149;36.4342381;;;;;
EM.4600;PS0106-031;SELELA;ARUSHA;MONDULI;SELELA;GOVERNMENT;-3.204815;35.945719;;;;;
EM.10270;PS0106-032;ARKARIA;ARUSHA;MONDULI;SEPEKO;GOVERNMENT;-3.326774;36.302944;;;;;
EM.10033;PS0106-033;NAALARAMI;ARUSHA;MONDULI;NAALARAMI;GOVERNMENT;-3.619819;36.514947;;;;;
EM.10272;PS0106-034;ORKEESWA;ARUSHA;MONDULI;LASHAINE;GOVERNMENT;-3.309568;36.399394;;;;;
EM.10271;PS0106-035;OLTUKAI;ARUSHA;MONDULI;ESILALEI;GOVERNMENT;-3.63336358;35.92064328;;;;;
EM.11102;PS0106-036;ELUWAI;ARUSHA;MONDULI;MONDULI JUU;GOVERNMENT;-3.222242;36.364997;;;;;
EM.10898;PS0106-037;OLARASH;ARUSHA;MONDULI;ENGUTOTO;GOVERNMENT;-3.311579;36.475498;;;;;
EM.10726;PS0106-038;KILIMATINDE;ARUSHA;MONDULI;MOITA;GOVERNMENT;-3.635536;36.592745;;;;;
EM.11106;PS0106-039;NAFCO;ARUSHA;MONDULI;LOLKISALE;GOVERNMENT;-3.721533;36.406498;;;;;
EM.11585;PS0106-040;KHATIMUL AMBIYAA;ARUSHA;MONDULI;SEPEKO;NON GOVERNMENT;-3.415004;36.321258;;;;;
EM.11105;PS0106-041;MSWAKINI JUU;ARUSHA;MONDULI;MSWAKINI;GOVERNMENT;-3.674287;36.055547;;;;;
EM.10897;PS0106-042;MBAASH;ARUSHA;MONDULI;SELELA;GOVERNMENT;-3.208522;36.058332;;;;;
EM.11101;PS0106-043;BARAKA;ARUSHA;MONDULI;ESILALEI;GOVERNMENT;-3.3597625;35.9046817;;;;;
EM.11104;PS0106-044;MIGOMBANI;ARUSHA;MONDULI;MAJENGO;GOVERNMENT;-3.33893926;35.84446091;;;;;
EM.11103;PS0106-045;LEMOOTI;ARUSHA;MONDULI;LEMOOTI;GOVERNMENT;-3.763849;36.310248;;;;;
EM.11584;PS0106-046;JANGWANI;ARUSHA;MONDULI;MTO WA MBU;GOVERNMENT;-3.386481;35.855789;;;;;
EM.12404;PS0106-047;EUNOTO;ARUSHA;MONDULI;ESILALEI;GOVERNMENT;-3.316397;35.891054;;;;;
EM.13045;PS0106-048;LOOSIKITO;ARUSHA;MONDULI;LEMOOTI;GOVERNMENT;-3.768447;36.486317;;;;;
EM.13522;PS0106-049;SINONI;ARUSHA;MONDULI;MONDULI MJINI;GOVERNMENT;-3.31861641;36.45104139;;;;;
EM.13521;PS0106-050;IRMORIJO;ARUSHA;MONDULI;MONDULI JUU;GOVERNMENT;-3.265574;36.341739;;;;;
EM.14765;PS0106-051;MWALIMU ANNA;ARUSHA;MONDULI;MIGUNGANI;NON GOVERNMENT;-3.372247;35.869387;;;;;
EM.14763;PS0106-052;LENGOLWA;ARUSHA;MONDULI;LEMOOTI;GOVERNMENT;-3.755865;36.398707;;;;;
EM.15216;PS0106-053;SOKOINE;ARUSHA;MONDULI;MESERANI;GOVERNMENT;-3.400471;36.462245;;;;;
EM.14760;PS0106-054;ENG'AROOJI;ARUSHA;MONDULI;LEPURKO;GOVERNMENT;-3.318481;36.245002;;;;;
EM.14761;PS0106-055;ENGIRGIR;ARUSHA;MONDULI;LEPURKO;GOVERNMENT;-3.409956;36.235445;;;;;
EM.14762;PS0106-056;LAIBONI;ARUSHA;MONDULI;ESILALEI;GOVERNMENT;-3.4825589;35.9971582;;;;;
EM.14766;PS0106-057;NANJA;ARUSHA;MONDULI;LEPURKO;GOVERNMENT;-3.3967693;36.2536849;;;;;
EM.16696;PS0106-058;PERFECT;ARUSHA;MONDULI;ESILALEI;NON GOVERNMENT;-3.44106965;35.95054119;;;;;
EM.14764;PS0106-059;LOSIRWA;ARUSHA;MONDULI;ESILALEI;GOVERNMENT;-3.4043305;35.9116882;;;;;
EM.14985;PS0106-060;MONDULI VALLEY;ARUSHA;MONDULI;MONDULI MJINI;NON GOVERNMENT;-3.302417;36.448553;;;;;
EM.6974;PS0107-001;ALAILELAI;ARUSHA;NGORONGORO;ALAILELAI;GOVERNMENT;-2.9568549;35.7000966;;;;;
EM.659;PS0107-002;ARASH;ARUSHA;NGORONGORO;ARASH;GOVERNMENT;-2.1287231;35.578656;;;;;
EM.7625;PS0107-003;BULATI;ARUSHA;NGORONGORO;NAINOKANOKA;GOVERNMENT;-2.9873733;35.803121;;;;;
EM.475;PS0107-004;DIGODIGO;ARUSHA;NGORONGORO;KIRANGI;GOVERNMENT;-2.14666;35.74325;;;;;
EM.1463;PS0107-005;ENDULEN;ARUSHA;NGORONGORO;ENDULENI;GOVERNMENT;-3.2209716;35.2696964;;;;;
EM.7626;PS0107-006;ENGUSEROSAMBU;ARUSHA;NGORONGORO;ENGUSEROSAMBU;GOVERNMENT;-1.9825149;38.6653412;;;;;
EM.6975;PS0107-007;ESERE;ARUSHA;NGORONGORO;ALAITOLEI;GOVERNMENT;-3.2970283;35.1910483;;;;;
EM.7627;PS0107-008;IRKEEPUS;ARUSHA;NGORONGORO;NAINOKANOKA;GOVERNMENT;-3.09251;35.69175;;;;;
EM.3030;PS0107-009;KAKESIO;ARUSHA;NGORONGORO;KAKESIO;GOVERNMENT;-3.3797712;35.987556;;;;;
EM.3417;PS0107-010;KISANGIRO;ARUSHA;NGORONGORO;KIRANGI;GOVERNMENT;-2.1318688;35.7654514;;;;;
EM.547;PS0107-011;LOLIONDO;ARUSHA;NGORONGORO;ORGOSOROK;GOVERNMENT;-2.0588898;35.5690412;;;;;
EM.9460;PS0107-012;MAKAO MAPYA;ARUSHA;NGORONGORO;NGORONGORO;GOVERNMENT;-3.2424633;35.4837401;;;;;
EM.2215;PS0107-013;MALAMBO;ARUSHA;NGORONGORO;MALAMBO;GOVERNMENT;-2.515623;35.60194;;;;;
EM.1710;PS0107-014;MOKILAL;ARUSHA;NGORONGORO;NGORONGORO;GOVERNMENT;-3.230422;35.42467;;;;;
EM.606;PS0107-015;NAINOKANOKA;ARUSHA;NGORONGORO;NAINOKANOKA;GOVERNMENT;-3.030195;35.6910651;;;;;
EM.7629;PS0107-016;NAIYOBI;ARUSHA;NGORONGORO;NAIYOBI;GOVERNMENT;-2.8473555;35.8252233;;;;;
EM.6976;PS0107-017;OLBALBAL;ARUSHA;NGORONGORO;OLBALBAL;GOVERNMENT;-2.983881;35.507331;;;;;
EM.2348;PS0107-018;OLDONYOSAMBU;ARUSHA;NGORONGORO;OLDONYOSAMBU;GOVERNMENT;-2.18217161;35.833735;;;;;
EM.7630;PS0107-019;OLOIPIRI;ARUSHA;NGORONGORO;OLOIPIRI;GOVERNMENT;-2.0599317;35.5870628;;;;;
EM.14585;PS0107-020;JEMA;ARUSHA;NGORONGORO;OLDONYOSAMBU;GOVERNMENT;-2.13722217;35.8837054;;;;;
EM.8058;PS0107-021;OLOLOSOKWAN;ARUSHA;NGORONGORO;OLOLOSOKWAN;GOVERNMENT;-1.875433;35.337576;;;;;
EM.6977;PS0107-022;PIYAYA;ARUSHA;NGORONGORO;PIYAYA;GOVERNMENT;-2.5808033;35.5036533;;;;;
EM.6978;PS0107-023;SAKALA;ARUSHA;NGORONGORO;ORGOSOROK;GOVERNMENT;-2.06106;35.605;;;;;
EM.1773;PS0107-024;SALE;ARUSHA;NGORONGORO;SALE;GOVERNMENT;-2.296295;35.68965833;;;;;
EM.4046;PS0107-025;SAMUNGE;ARUSHA;NGORONGORO;SALE;GOVERNMENT;-2.1524512;32.711411;;;;;
EM.2216;PS0107-026;SOITSAMBU;ARUSHA;NGORONGORO;SOITSAMBU;GOVERNMENT;-1.90809;35.42301;;;;;
EM.7628;PS0107-027;LORIEN;ARUSHA;NGORONGORO;OLORIEN/MAGAIDURU;GOVERNMENT;-2.09479;35.63258;;;;;
EM.3418;PS0107-028;MAALON;ARUSHA;NGORONGORO;MAALON;GOVERNMENT;-2.24893;35.57877;;;;;
EM.11107;PS0107-029;LOOSOITO;ARUSHA;NGORONGORO;MAALON;GOVERNMENT;-2.0876875;35.5621953;;;;;
EM.9053;PS0107-030;ENGARASERO;ARUSHA;NGORONGORO;ENGARESERO;GOVERNMENT;-2.61072;35.87794;;;;;
EM.7631;PS0107-031;OSINONI;ARUSHA;NGORONGORO;KAKESIO;GOVERNMENT;-3.3634283;35.096261;;;;;
EM.9054;PS0107-032;WASSO;ARUSHA;NGORONGORO;OLORIEN/MAGAIDURU;GOVERNMENT;-2.05455;35.564559;;;;;
EM.9055;PS0107-033;YASIMDITO;ARUSHA;NGORONGORO;SALE;GOVERNMENT;-2.19594581;35.7016456;;;;;
EM.10727;PS0107-034;KAPENJIRO;ARUSHA;NGORONGORO;NAIYOBI;GOVERNMENT;-2.9303033;35.8906567;;;;;
EM.9583;PS0107-035;NG'ARWA;ARUSHA;NGORONGORO;ENGUSEROSAMBU;GOVERNMENT;-2.05898;35.657;;;;;
EM.11111;PS0107-036;OLPIRO;ARUSHA;NGORONGORO;EYASI;GOVERNMENT;-3.341943333;35.283255;;;;;
EM.10273;PS0107-037;MGONGO;ARUSHA;NGORONGORO;SALE;GOVERNMENT;-2.16098;35.66865;;;;;
EM.10274;PS0107-038;MONICK;ARUSHA;NGORONGORO;ENGARESERO;GOVERNMENT;-2.4978;35.89471;;;;;
EM.10275;PS0107-039;PINYINYI;ARUSHA;NGORONGORO;PINYINYI;GOVERNMENT;-2.3111353;35.9418617;;;;;
EM.10899;PS0107-040;MISIGIYO;ARUSHA;NGORONGORO;MISIGYO;GOVERNMENT;-3.20677037;35.3610128;;;;;
EM.10901;PS0107-041;SENDUI;ARUSHA;NGORONGORO;ALAILELAI;GOVERNMENT;-2.90092;35.75609499;;;;;
EM.10902;PS0107-042;SUKENYA;ARUSHA;NGORONGORO;OLOIPIRI;GOVERNMENT;-1.95868;35.5123;;;;;
EM.10900;PS0107-043;OLDONYOWAS;ARUSHA;NGORONGORO;OLORIEN/MAGAIDURU;GOVERNMENT;-2.17143;35.568;;;;;
EM.11108;PS0107-044;NDIAN;ARUSHA;NGORONGORO;ENDULENI;GOVERNMENT;-2.9226443;35.329866;;;;;
EM.11110;PS0107-045;NJOROI;ARUSHA;NGORONGORO;OLOLOSOKWAN;GOVERNMENT;-1.820867;35.14163;;;;;
EM.11109;PS0107-046;NGOILE;ARUSHA;NGORONGORO;NGOILE;GOVERNMENT;-3.0432502;35.480435;;;;;
EM.11112;PS0107-047;RERA;ARUSHA;NGORONGORO;DIGODIGO;GOVERNMENT;-2.1597;35.74024;;;;;
EM.11588;PS0107-048;OLOIROBI;ARUSHA;NGORONGORO;NGORONGORO;GOVERNMENT;-3.209695;35.458487;;;;;
EM.12405;PS0107-049;LOLIONDO GCCT ENGLISH MEDIUM;ARUSHA;NGORONGORO;ORGOSOROK;NON GOVERNMENT;-2.0577;35.61667;;;;;
EM.11586;PS0107-050;KIRTALO;ARUSHA;NGORONGORO;SOITSAMBU;GOVERNMENT;-1.961215;35.3631967;;;;;
EM.11587;PS0107-051;MASUSU;ARUSHA;NGORONGORO;PINYINYI;GOVERNMENT;-2.2653516;35.8072833;;;;;
EM.13523;PS0107-052;MONDOROS;ARUSHA;NGORONGORO;SOITSAMBU;GOVERNMENT;-2.9017231;35.3700324;;;;;
EM.13046;PS0107-053;NAAN;ARUSHA;NGORONGORO;ENGUSEROSAMBU;GOVERNMENT;-2.0183;35.77185;;;;;
EM.13047;PS0107-054;OLALAA;ARUSHA;NGORONGORO;ARASH;GOVERNMENT;-2.45943;35.534276;;;;;
EM.13524;PS0107-055;OLCHANIOMELOCK;ARUSHA;NGORONGORO;ALAILELAI;GOVERNMENT;-2.9567783;35.6611617;;;;;
EM.13897;PS0107-056;NASERIAN ENGLISH MEDIUM;ARUSHA;NGORONGORO;MALAMBO;NON GOVERNMENT;-2.513392;35.609813;;;;;
EM.13525;PS0107-057;TINAGA;ARUSHA;NGORONGORO;KIRANGI;GOVERNMENT;-2.0571372;35.5622512;;;;;
EM.14326;PS0107-058;LUMO ENGLISH MEDIUM;ARUSHA;NGORONGORO;OLORIEN/MAGAIDURU;NON GOVERNMENT;-2.05831;35.55077;;;;;
EM.14327;PS0107-059;MAIROWA;ARUSHA;NGORONGORO;OLOLOSOKWAN;GOVERNMENT;-1.870129;35.3699528;;;;;
EM.15218;PS0107-060;ORKIU;ARUSHA;NGORONGORO;ENGUSEROSAMBU;GOVERNMENT;-2.02321833;35.6209916;;;;;
EM.14586;PS0107-061;MAGERI;ARUSHA;NGORONGORO;SALE;GOVERNMENT;-2.1564799;35.6633264;;;;;
EM.14767;PS0107-062;LEMISHIRI;ARUSHA;NGORONGORO;OLORIEN/MAGAIDURU;GOVERNMENT;-2.12983;35.57855;;;;;
EM.14768;PS0107-064;MDITO;ARUSHA;NGORONGORO;SALE;GOVERNMENT;-2.22413;35.67881;;;;;
EM.7632;PS0201-001;BUYUNI II;DAR ES SALAAM;ILALA MC;BUYUNI;GOVERNMENT;-6.5717205;39.0603204;;;;;
EM.5806;PS0201-002;CHANIKA;DAR ES SALAAM;ILALA MC;CHANIKA;GOVERNMENT;-6.5851293;39.0524814;;;;;
EM.4601;PS0201-003;MAJOHE;DAR ES SALAAM;ILALA MC;MAJOHE;GOVERNMENT;-6.5449051;39.075657;;;;;
EM.4602;PS0201-004;MSONGOLA;DAR ES SALAAM;ILALA MC;MSONGOLA;GOVERNMENT;-6.581566;39.10403;;;;;
EM.7634;PS0201-005;MVUTI;DAR ES SALAAM;ILALA MC;MSONGOLA;GOVERNMENT;-7.013535;39.073196;;;;;
EM.2861;PS0201-006;KINYEREZI;DAR ES SALAAM;ILALA MC;KINYEREZI;GOVERNMENT;-6.5126132;39.0923143;;;;;
EM.3419;PS0201-007;KITUNDA;DAR ES SALAAM;ILALA MC;KITUNDA;GOVERNMENT;-6.54032;39.11522;;;;;
EM.2110;PS0201-008;PUGU KAJIUNGENI;DAR ES SALAAM;ILALA MC;PUGU;GOVERNMENT;-6.8996166;39.1251656;;;;;
EM.10911;PS0201-009;PUGU STATION;DAR ES SALAAM;ILALA MC;PUGU STATION;GOVERNMENT;-6.5319876;39.0704534;;;;;
EM.9585;PS0201-010;NZASA II;DAR ES SALAAM;ILALA MC;ZINGIZIWA;GOVERNMENT;-7.013614;39.025657;;;;;
EM.11596;PS0201-011;KEREZANGE;DAR ES SALAAM;ILALA MC;KITUNDA;GOVERNMENT;-6.54073;39.11575;;;;;
EM.10420;PS0201-012;ZINGIZIWA;DAR ES SALAAM;ILALA MC;ZINGIZIWA;GOVERNMENT;-7.024246;39.051444;;;;;
EM.11593;PS0201-013;GREEN HILL;DAR ES SALAAM;ILALA MC;PUGU;NON GOVERNMENT;-6.5314045;39.0713456;;;;;
EM.12408;PS0201-014;JITIHADA;DAR ES SALAAM;ILALA MC;KITUNDA;GOVERNMENT;-6.54078;39.11526;;;;;
EM.10905;PS0201-015;KIBOGA;DAR ES SALAAM;ILALA MC;MSONGOLA;GOVERNMENT;-7.035487;39.071415;;;;;
EM.11118;PS0201-016;KIPUNGUNI;DAR ES SALAAM;ILALA MC;KIPUNGUNI;GOVERNMENT;-6.5423654;39.1020321;;;;;
EM.11598;PS0201-017;KIFURU;DAR ES SALAAM;ILALA MC;BONYOKWA;GOVERNMENT;-6.5002121;39.09225;;;;;
EM.11119;PS0201-018;KIVULE;DAR ES SALAAM;ILALA MC;KIVULE;GOVERNMENT;-6.5601876;39.1018132;;;;;
EM.11121;PS0201-019;LAWRENCE CITIZENS;DAR ES SALAAM;ILALA MC;KITUNDA;NON GOVERNMENT;-6.8951266;39.1866483;;;;;
EM.12410;PS0201-020;MISSION KITUNDA;DAR ES SALAAM;ILALA MC;KITUNDA;NON GOVERNMENT;-6.9084528;39.1914115;;;;;
EM.11590;PS0201-021;BANGULO;DAR ES SALAAM;ILALA MC;PUGU STATION;GOVERNMENT;-6.5158306;39.0746504;;;;;
EM.11594;PS0201-022;IMANI;DAR ES SALAAM;ILALA MC;KITUNDA;NON GOVERNMENT;-6.54195;39.11494;;;;;
EM.11117;PS0201-023;KIGEZI;DAR ES SALAAM;ILALA MC;BUYUNI;GOVERNMENT;-6.5819401;39.0704003;;;;;
EM.11604;PS0201-024;MAGOLE;DAR ES SALAAM;ILALA MC;MZINGA;GOVERNMENT;-6.939539;39.196999;;;;;
EM.12413;PS0201-025;TUNGINI;DAR ES SALAAM;ILALA MC;CHANIKA;GOVERNMENT;-6.5853923;39.0521834;;;;;
EM.11131;PS0201-026;YONGWE;DAR ES SALAAM;ILALA MC;CHANIKA;GOVERNMENT;-6.5942407;39.0741303;;;;;
EM.10906;PS0201-027;KIMWANI;DAR ES SALAAM;ILALA MC;ZINGIZIWA;GOVERNMENT;-6.5937926;39.0434982;;;;;
EM.11600;PS0201-028;KIGOGO FRESH;DAR ES SALAAM;ILALA MC;PUGU;GOVERNMENT;-6.916571;39.116409;;;;;
EM.11613;PS0201-029;NEW VIBE;DAR ES SALAAM;ILALA MC;KINYEREZI;NON GOVERNMENT;-6.5044876;39.1006231;;;;;
EM.12411;PS0201-030;NYEBURU;DAR ES SALAAM;ILALA MC;BUYUNI;GOVERNMENT;-6.5748121;39.04276056;;;;;
EM.11619;PS0201-031;VIWEGE;DAR ES SALAAM;ILALA MC;MAJOHE;GOVERNMENT;-6.5604085;39.0741476;;;;;
EM.11606;PS0201-032;MBONDOLE;DAR ES SALAAM;ILALA MC;MSONGOLA;GOVERNMENT;-6.581791;39.084227;;;;;
EM.11591;PS0201-033;BONYOKWA;DAR ES SALAAM;ILALA MC;BONYOKWA;GOVERNMENT;-6.4916543;39.1003432;;;;;
EM.11597;PS0201-034;KIBAGA;DAR ES SALAAM;ILALA MC;KINYEREZI;GOVERNMENT;-6.5055132;39.0857432;;;;;
EM.11601;PS0201-035;KITONGA;DAR ES SALAAM;ILALA MC;MSONGOLA;GOVERNMENT;-7.002646;39.393494;;;;;
EM.11609;PS0201-036;MJI MPYA;DAR ES SALAAM;ILALA MC;MAJOHE;GOVERNMENT;-6.5529834;39.0922678;;;;;
EM.12412;PS0201-037;TUMAINI KEREZANGE;DAR ES SALAAM;ILALA MC;MZINGA;NON GOVERNMENT;-6.54282;39.11521;;;;;
EM.13530;PS0201-038;MASAKA;DAR ES SALAAM;ILALA MC;KIPUNGUNI;NON GOVERNMENT;-6.5403987;39.1004654;;;;;
EM.13051;PS0201-039;MWANAGATI;DAR ES SALAAM;ILALA MC;MZINGA;GOVERNMENT;-.6.9149430;39.228121;;;;;
EM.14587;PS0201-040;LUKOONI;DAR ES SALAAM;ILALA MC;CHANIKA;GOVERNMENT;-7.0023965;39.0531954;;;;;
EM.13529;PS0201-041;KILIMANI;DAR ES SALAAM;ILALA MC;KIPUNGUNI;GOVERNMENT;-6.5426543;39.1020987;;;;;
EM.14588;PS0201-042;MACEDONIA;DAR ES SALAAM;ILALA MC;BONYOKWA;NON GOVERNMENT;-6.4954123;39.0959654;;;;;
EM.15220;PS0201-043;HEROES;DAR ES SALAAM;ILALA MC;ZINGIZIWA;NON GOVERNMENT;-7.0145533;39.0523405;;;;;
EM.14333;PS0201-044;ZABIKHA;DAR ES SALAAM;ILALA MC;KINYEREZI;NON GOVERNMENT;-6.5123321;39.0833321;;;;;
EM.14590;PS0201-045;MICHAEL MAUSA;DAR ES SALAAM;ILALA MC;KINYEREZI;NON GOVERNMENT;-6.5021876;39.0917231;;;;;
EM.14589;PS0201-046;MARYLINN;DAR ES SALAAM;ILALA MC;MAJOHE;NON GOVERNMENT;-6.5354812;39.0930754;;;;;
EM.15949;PS0201-047;NYAMATA;DAR ES SALAAM;ILALA MC;MZINGA;NON GOVERNMENT;-6.9159862;39.2205654;;;;;
EM.15223;PS0201-048;NYIWA;DAR ES SALAAM;ILALA MC;KINYEREZI;NON GOVERNMENT;-6.5147321;39.081754;;;;;
EM.14997;PS0201-049;MOUNT PLEASANT;DAR ES SALAAM;ILALA MC;KINYEREZI;NON GOVERNMENT;-6.5003876;39.0917231;;;;;
EM.14991;PS0201-050;ERIMERINDA;DAR ES SALAAM;ILALA MC;KINYEREZI;NON GOVERNMENT;-6.5057654;39.0824987;;;;;
EM.15416;PS0201-051;DADDY;DAR ES SALAAM;ILALA MC;KIVULE;NON GOVERNMENT;-6.5716543;39.1023765;;;;;
EM.15944;PS0201-052;KWILA;DAR ES SALAAM;ILALA MC;CHANIKA;NON GOVERNMENT;-6.5952102;39.0752806;;;;;
EM.15219;PS0201-053;BOMBAMBILI;DAR ES SALAAM;ILALA MC;KIVULE;GOVERNMENT;-6.5639876;39.0929876;;;;;
EM.15940;PS0201-054;BARTIVALLEY;DAR ES SALAAM;ILALA MC;KIPUNGUNI;NON GOVERNMENT;-6.5453765;39.1035321;;;;;
EM.14998;PS0201-055;UPENDO MONTESSORRY;DAR ES SALAAM;ILALA MC;BUYUNI;NON GOVERNMENT;-6.5652307;39.0613803;;;;;
EM.16699;PS0201-056;BENEDICT;DAR ES SALAAM;ILALA MC;CHANIKA;NON GOVERNMENT;-6.5840992;39.0556116;;;;;
EM.15415;PS0201-057;CLICK;DAR ES SALAAM;ILALA MC;KIVULE;NON GOVERNMENT;-6.5424123;39.1137098;;;;;
EM.15419;PS0201-058;KABBY;DAR ES SALAAM;ILALA MC;PUGU;NON GOVERNMENT;-6.5545905;39.0714005;;;;;
EM.15952;PS0201-062;ST ROSALIA;DAR ES SALAAM;ILALA MC;KINYEREZI;NON GOVERNMENT;-6.5051432;39.1001231;;;;;
EM.15945;PS0201-067;LEDACTOM ACADEMY;DAR ES SALAAM;ILALA MC;MSONGOLA;NON GOVERNMENT;-6.591695;39.105008;;;;;
EM.17023;PS0201-072;PAMOJA;DAR ES SALAAM;ILALA MC;KINYEREZI;NON GOVERNMENT;-6.4916876;39.0922543;;;;;
EM.16700;PS0201-073;BLESSED HILL;DAR ES SALAAM;ILALA MC;KITUNDA;NON GOVERNMENT;-6.9004883;39.1938666;;;;;
EM.17019;PS0201-074;MAJMAAL BAHRAIN;DAR ES SALAAM;ILALA MC;MAJOHE;NON GOVERNMENT;-6.5507459;39.0921785;;;;;
EM.16702;PS0201-085;GISELA;DAR ES SALAAM;ILALA MC;KIPUNGUNI;NON GOVERNMENT;-6.5453321;39.0958543;;;;;
EM.14988;PS0202-001;AMANA;DAR ES SALAAM;ILALA MC;ILALA;GOVERNMENT;6.49341;39.15351;;;;;
EM.2452;PS0202-002;BOMA;DAR ES SALAAM;ILALA MC;ILALA;GOVERNMENT;6.49258;39.15442;;;;;
EM.17010;PS0202-003;BUGURUNI;DAR ES SALAAM;ILALA MC;BUGURUNI;GOVERNMENT;-6.5019;39.1441;;;;;
EM.11114;PS0202-004;BUGURUNI MOTO;DAR ES SALAAM;ILALA MC;BUGURUNI;GOVERNMENT;-6.792354;39.208328;;;;;
EM.9584;PS0202-005;BUGURUNI VIZIWI;DAR ES SALAAM;ILALA MC;BUGURUNI;GOVERNMENT;-6.826521;39.2513497;;;;;
EM.1711;PS0202-006;BUNGE;DAR ES SALAAM;ILALA MC;KIVUKONI;GOVERNMENT;6.48467;39.17369;;;;;
EM.10904;PS0202-008;GEREZANI;DAR ES SALAAM;ILALA MC;GEREZANI;GOVERNMENT;6.49217;39.19461;;;;;
EM.10903;PS0202-009;AMANI;DAR ES SALAAM;ILALA MC;UKONGA;GOVERNMENT;-6.5229052;39.0958016;;;;;
EM.11602;PS0202-010;MAARIFA;DAR ES SALAAM;ILALA MC;GONGOLAMBOTO;GOVERNMENT;-6.5257016;39.0927041;;;;;
EM.476;PS0202-011;ILALA;DAR ES SALAAM;ILALA MC;ILALA;GOVERNMENT;6.49444;39.1527;;;;;
EM.8059;PS0202-013;KARAKATA;DAR ES SALAAM;ILALA MC;KIPAWA;GOVERNMENT;-6.5123143;39.1208234;;;;;
EM.10907;PS0202-016;KISUTU;DAR ES SALAAM;ILALA MC;KISUTU;GOVERNMENT;6.48428;39.17079;;;;;
EM.7633;PS0202-019;KIWALANI;DAR ES SALAAM;ILALA MC;KIWALANI;GOVERNMENT;-6.5143321;39.1328321;;;;;
EM.1569;PS0202-020;LUMUMBA;DAR ES SALAAM;ILALA MC;KARIAKOO;GOVERNMENT;6.49075;39.16432;;;;;
EM.256;PS0202-021;MCHIKICHINI;DAR ES SALAAM;ILALA MC;MCHIKICHINI;GOVERNMENT;6.4905;39.16051;;;;;
EM.5807;PS0202-022;MINAZI MIREFU;DAR ES SALAAM;ILALA MC;KIPAWA;GOVERNMENT;-6.52107654;39.1128654;;;;;
EM.1179;PS0202-023;MNAZIMMOJA;DAR ES SALAAM;ILALA MC;JANGWANI;GOVERNMENT;6.48504;39.16406;;;;;
EM.75;PS0202-024;MSIMBAZI MSETO;DAR ES SALAAM;ILALA MC;ILALA;GOVERNMENT;6.4914;39.1521;;;;;
EM.3258;PS0202-025;MSIMBAZI;DAR ES SALAAM;ILALA MC;ILALA;GOVERNMENT;-6.8183956;39.1036;;;;;
EM.181;PS0202-026;MTENDENI;DAR ES SALAAM;ILALA MC;KISUTU;GOVERNMENT;6.48508;39.16501;;;;;
EM.3259;PS0202-027;MUHIMBILI;DAR ES SALAAM;ILALA MC;UPANGA MAGHARIBI;GOVERNMENT;6.48088;39.16344;;;;;
EM.10730;PS0202-028;OLYMPIO;DAR ES SALAAM;ILALA MC;UPANGA MASHARIKI;GOVERNMENT;6.48204;39.16501;;;;;
EM.13527;PS0202-029;CHRIST THE KING;DAR ES SALAAM;ILALA MC;TABATA;NON GOVERNMENT;-6.4956432;39.1322114;;;;;
EM.304;PS0202-031;TABATA;DAR ES SALAAM;ILALA MC;TABATA;GOVERNMENT;-6.4942673;39.1335981;;;;;
EM.48;PS0202-032;UHURU MCHANGANYIKO;DAR ES SALAAM;ILALA MC;GEREZANI;GOVERNMENT;6.49244;39.16057;;;;;
EM.145;PS0202-033;UHURU WASICHANA;DAR ES SALAAM;ILALA MC;GEREZANI;GOVERNMENT;6.49201;39.16207;;;;;
EM.13531;PS0202-034;UKONGA;DAR ES SALAAM;ILALA MC;UKONGA;GOVERNMENT;-6.52460378;39.1040067;;;;;
EM.2111;PS0202-035;YOMBO;DAR ES SALAAM;ILALA MC;KIWALANI;GOVERNMENT;-6.5148321;39.1402543;;;;;
EM.4047;PS0202-036;VINGUNGUTI;DAR ES SALAAM;ILALA MC;VINGUNGUTI;GOVERNMENT;-6.8504662;39.2243227;;;;;
EM.11124;PS0202-037;MTAKUJA;DAR ES SALAAM;ILALA MC;VINGUNGUTI;GOVERNMENT;-6.832496;39.260342;;;;;
EM.257;PS0202-038;UPANGA;DAR ES SALAAM;ILALA MC;UPANGA MASHARIKI;GOVERNMENT;6.48289;39.17006;;;;;
EM.1712;PS0202-039;ZANAKI;DAR ES SALAAM;ILALA MC;UPANGA MASHARIKI;GOVERNMENT;6.48315;39.16438;;;;;
EM.9057;PS0202-040;KIMANGA;DAR ES SALAAM;ILALA MC;KIMANGA;GOVERNMENT;-6.4930213;39.1220432;;;;;
EM.9056;PS0202-041;AL-MADRASATUS;DAR ES SALAAM;ILALA MC;UPANGA MAGHARIBI;NON GOVERNMENT;-6.807195;39.27996;;;;;
EM.12407;PS0202-042;HEKIMA;DAR ES SALAAM;ILALA MC;BUGURUNI;GOVERNMENT;-6.837472;39.244579;;;;;
EM.10277;PS0202-044;ST.MARRY'S;DAR ES SALAAM;ILALA MC;TABATA;NON GOVERNMENT;-6.4928754;39.1310987;;;;;
EM.10909;PS0202-045;NEW AMBASODOR;DAR ES SALAAM;ILALA MC;SEGEREA;NON GOVERNMENT;-6.5104;39.11352;;;;;
EM.11115;PS0202-046;DIAMOND;DAR ES SALAAM;ILALA MC;UPANGA MASHARIKI;GOVERNMENT;6.48177;39.165;;;;;
EM.11122;PS0202-047;MIEMBENI;DAR ES SALAAM;ILALA MC;VINGUNGUTI;GOVERNMENT;-6.8488494;39.2243145;;;;;
EM.11116;PS0202-048;JUHUDI;DAR ES SALAAM;ILALA MC;UKONGA;GOVERNMENT;-6.5250017;39.1040083;;;;;
EM.11120;PS0202-049;KOMBO;DAR ES SALAAM;ILALA MC;VINGUNGUTI;GOVERNMENT;-6.8450359;39.2279714;;;;;
EM.10035;PS0202-050;SEGEREA;DAR ES SALAAM;ILALA MC;SEGEREA;GOVERNMENT;-6.5006;39.11227;;;;;
EM.9337;PS0202-051;AL-MUNTAZIR BOYS;DAR ES SALAAM;ILALA MC;KIVUKONI;NON GOVERNMENT;6.48004;39.17111;;;;;
EM.11589;PS0202-052;AIRWING;DAR ES SALAAM;ILALA MC;KIPAWA;GOVERNMENT;-6.5212432;39.1132321;;;;;
EM.11592;PS0202-053;BWAWANI;DAR ES SALAAM;ILALA MC;KIWALANI;GOVERNMENT;-6.5145231;39.1402321;;;;;
EM.17011;PS0202-054;BUGURUNI KISIWANI;DAR ES SALAAM;ILALA MC;BUGURUNI;GOVERNMENT;-6.831276;39.294119;;;;;
EM.11599;PS0202-055;KIGILAGILA;DAR ES SALAAM;ILALA MC;KIWALANI;GOVERNMENT;-6.5143123;39.1329543;;;;;
EM.10276;PS0202-056;LIWITI;DAR ES SALAAM;ILALA MC;LIWITI;GOVERNMENT;-6.5015765;39.1251765;;;;;
EM.11603;PS0202-057;MAENDELEO;DAR ES SALAAM;ILALA MC;SEGEREA;GOVERNMENT;-6.50038;39.11201;;;;;
EM.11605;PS0202-058;MAKTABA;DAR ES SALAAM;ILALA MC;UPANGA MASHARIKI;GOVERNMENT;6.48304;39.16573;;;;;
EM.11607;PS0202-059;MISEWE;DAR ES SALAAM;ILALA MC;LIWITI;GOVERNMENT;-6.501243;39.1251543;;;;;
EM.11608;PS0202-060;MIVINJENI;DAR ES SALAAM;ILALA MC;ILALA;GOVERNMENT;6.49128;39.15206;;;;;
EM.11610;PS0202-061;MKOANI;DAR ES SALAAM;ILALA MC;ILALA;GOVERNMENT;6.49247;39.15454;;;;;
EM.11125;PS0202-062;MTAMBANI;DAR ES SALAAM;ILALA MC;TABATA;GOVERNMENT;-6.4942804;39.1338541;;;;;
EM.11618;PS0202-063;UMOJA WA MATAIFA;DAR ES SALAAM;ILALA MC;UPANGA MAGHARIBI;GOVERNMENT;6.48088;39.16336;;;;;
EM.11611;PS0202-064;MWANGAZA;DAR ES SALAAM;ILALA MC;GONGOLAMBOTO;GOVERNMENT;-6.5259015;39.0930055;;;;;
EM.11126;PS0202-065;MWALE;DAR ES SALAAM;ILALA MC;KIWALANI;GOVERNMENT;-6.5146987;39.1402421;;;;;
EM.11130;PS0202-066;UMOJA;DAR ES SALAAM;ILALA MC;KIWALANI;GOVERNMENT;-6.5149543;39.1402078;;;;;
EM.11113;PS0202-067;AL-MUNTAZIRY GIRLS;DAR ES SALAAM;ILALA MC;UPANGA MAGHARIBI;NON GOVERNMENT;6.47439;39.16413;;;;;
EM.10034;PS0202-068;AL-FURQAAN;DAR ES SALAAM;ILALA MC;ILALA;NON GOVERNMENT;-6.49504;39.15104;;;;;
EM.11127;PS0202-071;QUIBLATAIN;DAR ES SALAAM;ILALA MC;KARIAKOO;NON GOVERNMENT;-6 .82200356;39 .27659284;;;;;
EM.11614;PS0202-072;ST. AUGUSTINE;DAR ES SALAAM;ILALA MC;BUGURUNI;NON GOVERNMENT;-6.77034;39.133088;;;;;
EM.11615;PS0202-073;TABATA JICA;DAR ES SALAAM;ILALA MC;TABATA;GOVERNMENT;-6.4943783;39.1340761;;;;;
EM.11616;PS0202-074;TUMAINI;DAR ES SALAAM;ILALA MC;KIMANGA;GOVERNMENT;-6.4933215;39.1219876;;;;;
EM.11617;PS0202-075;UKONGA JICA;DAR ES SALAAM;ILALA MC;UKONGA;GOVERNMENT;-6.5252291;39.1040318;;;;;
EM.10557;PS0202-076;GONGO LA MBOTOJESHINI;DAR ES SALAAM;ILALA MC;UKONGA;GOVERNMENT;-6.8971226;39.1678598;;;;;
EM.10908;PS0202-077;MARKAZ ISLAMIC;DAR ES SALAAM;ILALA MC;UKONGA;NON GOVERNMENT;-6.5305015;39.0946082;;;;;
EM.11612;PS0202-078;MZAMBARAUNI;DAR ES SALAAM;ILALA MC;UKONGA;GOVERNMENT;-6.5231064;39.0957073;;;;;
EM.11129;PS0202-079;ST.JOSEPH MILLENIIUM;DAR ES SALAAM;ILALA MC;KIVUKONI;NON GOVERNMENT;6.8185321;39.2880023;;;;;
EM.10731;PS0202-080;ST THERESA;DAR ES SALAAM;ILALA MC;UKONGA;NON GOVERNMENT;-6.9231075;39.1034087;;;;;
EM.10558;PS0202-081;ULONGONI;DAR ES SALAAM;ILALA MC;GONGOLAMBOTO;GOVERNMENT;-6.832496;39.260348;;;;;
EM.10728;PS0202-082;KISUKURU;DAR ES SALAAM;ILALA MC;KIMANGA;GOVERNMENT;-6.4914654;39.1149543;;;;;
EM.10419;PS0202-083;TUSIIME;DAR ES SALAAM;ILALA MC;SEGEREA;NON GOVERNMENT;-6.5026543;39.1157932;;;;;
EM.12406;PS0202-084;GONGO LA MBOTO JICA;DAR ES SALAAM;ILALA MC;GONGOLAMBOTO;GOVERNMENT;-6.5300345;39.0928593;;;;;
EM.10729;PS0202-085;MAGOZA;DAR ES SALAAM;ILALA MC;KISUKULU;GOVERNMENT;-6.49412;39.102815;;;;;
EM.12409;PS0202-086;MAJANI YA CHAI;DAR ES SALAAM;ILALA MC;KIPAWA;GOVERNMENT;-6.5112756;39.1248876;;;;;
EM.13049;PS0202-087;BUGURUNI MOTO MPYA;DAR ES SALAAM;ILALA MC;BUGURUNI;GOVERNMENT;-6.8331896;39.2396233;;;;;
EM.13050;PS0202-088;MOGO;DAR ES SALAAM;ILALA MC;KIPAWA;GOVERNMENT;-6.5121087;39.1205876;;;;;
EM.13048;PS0202-090;ANDREW'S;DAR ES SALAAM;ILALA MC;KIMANGA;NON GOVERNMENT;-6.4925321;39.1133421;;;;;
EM.11123;PS0202-091;MONGOLANDEGE;DAR ES SALAAM;ILALA MC;UKONGA;GOVERNMENT;-6.5132543;39.1020231;;;;;
EM.10910;PS0202-092;PATMO JUNIOR;DAR ES SALAAM;ILALA MC;SEGEREA;NON GOVERNMENT;-6.50039;39.1153;;;;;
EM.13528;PS0202-094;HIGHMOUNT;DAR ES SALAAM;ILALA MC;GONGOLAMBOTO;NON GOVERNMENT;-6.5308561;39.0814789;;;;;
EM.11128;PS0202-095;REMNANT;DAR ES SALAAM;ILALA MC;TABATA;NON GOVERNMENT;-6.4923456;39.1344532;;;;;
EM.14993;PS0202-096;HERITAGE;DAR ES SALAAM;ILALA MC;KIPAWA;NON GOVERNMENT;-6.5213132;39.1107067;;;;;
EM.13526;PS0202-097;AFRICAN;DAR ES SALAAM;ILALA MC;SEGEREA;NON GOVERNMENT;-6.50114;39.12101;;;;;
EM.14331;PS0202-098;QUEENS';DAR ES SALAAM;ILALA MC;KIPAWA;NON GOVERNMENT;-6.5130234;39.1111054;;;;;
EM.9138;PS0202-099;AL- HILAL;DAR ES SALAAM;ILALA MC;MCHAFUKOGE;NON GOVERNMENT;-6.819704;39.282422;;;;;
EM.14328;PS0202-100;AGNES MICHAEL;DAR ES SALAAM;ILALA MC;KIMANGA;NON GOVERNMENT;-6.48391;39.1036;;;;;
EM.14330;PS0202-101;MOUNT ZION;DAR ES SALAAM;ILALA MC;KIMANGA;NON GOVERNMENT;-6.48591;39.1046;;;;;
EM.14994;PS0202-102;ILALA ISLAMIC;DAR ES SALAAM;ILALA MC;ILALA;NON GOVERNMENT;6.49493;39.15341;;;;;
EM.14769;PS0202-103;HARVAD;DAR ES SALAAM;ILALA MC;SEGEREA;NON GOVERNMENT;-6.50076;39.12144;;;;;
EM.14989;PS0202-105;AMANI ACCT;DAR ES SALAAM;ILALA MC;KIMANGA;NON GOVERNMENT;-6.494413;39.10414;;;;;
EM.14329;PS0202-106;GENIUS KING;DAR ES SALAAM;ILALA MC;SEGEREA;NON GOVERNMENT;-6.5019;39.11268;;;;;
EM.15222;PS0202-107;LOVENES JUNIOR;DAR ES SALAAM;ILALA MC;KIPAWA;NON GOVERNMENT;-6.5106054;39.1245654;;;;;
EM.13898;PS0202-108;FOUNTAIN GATE;DAR ES SALAAM;ILALA MC;SEGEREA;NON GOVERNMENT;-6.5023134;39.1225321;;;;;
EM.14332;PS0202-109;SABISA;DAR ES SALAAM;ILALA MC;KISUKULU;NON GOVERNMENT;-6.49411;39.183925;;;;;
EM.14995;PS0202-110;KINGDOM HERTAGE;DAR ES SALAAM;ILALA MC;KIPAWA;NON GOVERNMENT;-6.5201432;39.1126654;;;;;
EM.15413;PS0202-111;ALFAROUQ;DAR ES SALAAM;ILALA MC;TABATA;NON GOVERNMENT;-6.493789;39.1322874;;;;;
EM.14987;PS0202-112;ABC CAPITAL;DAR ES SALAAM;ILALA MC;UKONGA;NON GOVERNMENT;-6.5153837;39.0940845;;;;;
EM.14591;PS0202-113;ST.MAXIMILIAN;DAR ES SALAAM;ILALA MC;SEGEREA;NON GOVERNMENT;-6.503724;39.10464;;;;;
EM.15224;PS0202-114;ST.SCOLASTICA;DAR ES SALAAM;ILALA MC;KIPAWA;NON GOVERNMENT;-6.531363;39.1045917;;;;;
EM.16704;PS0202-115;MEMON;DAR ES SALAAM;ILALA MC;UPANGA MAGHARIBI;NON GOVERNMENT;6.47589;39.16298;;;;;
EM.15414;PS0202-116;BARIADI;DAR ES SALAAM;ILALA MC;SEGEREA;NON GOVERNMENT;-6.50513;39.11074;;;;;
EM.15221;PS0202-117;KIPAWA LIBERMAN;DAR ES SALAAM;ILALA MC;KIPAWA;NON GOVERNMENT;-6.5122432;39.1204765;;;;;
EM.14990;PS0202-121;DARAJANI;DAR ES SALAAM;ILALA MC;KIMANGA;GOVERNMENT;-6.4932456;39.1255765;;;;;
EM.15947;PS0202-122;MONTESSORI MSIMBAZI;DAR ES SALAAM;ILALA MC;ILALA;NON GOVERNMENT;6.49172;39.15203;;;;;
EM.16703;PS0202-123;LUSASARO;DAR ES SALAAM;ILALA MC;KIMANGA;NON GOVERNMENT;-6.4847654;39.1049876;;;;;
EM.17024;PS0202-126;RUGWA;DAR ES SALAAM;ILALA MC;GONGOLAMBOTO;NON GOVERNMENT;-6.5301679;39.0818567;;;;;
EM.1713;PS0203-001;BOKO;DAR ES SALAAM;KINONDONI MC;BUNJU;GOVERNMENT;-6.633652;39.132311;;;;;
EM.2015;PS0203-002;BUNJU 'A';DAR ES SALAAM;KINONDONI MC;BUNJU;GOVERNMENT;-6.619822;39.108828;;;;;
EM.6980;PS0203-003;BUNJU B;DAR ES SALAAM;KINONDONI MC;MABWEPANDE;GOVERNMENT;-6.633221;39.115855;;;;;
EM.3422;PS0203-004;GOBA;DAR ES SALAAM;UBUNGO;GOBA;GOVERNMENT;-6.7377749;39.1590783;;;;;
EM.3423;PS0203-005;KIBAMBA;DAR ES SALAAM;UBUNGO;KIBAMBA;GOVERNMENT;-6.7852083;39.0459016;;;;;
EM.5818;PS0203-006;KILUVYA;DAR ES SALAAM;UBUNGO;KIBAMBA;GOVERNMENT;-6.7873366;39.0192383;;;;;
EM.4059;PS0203-007;KWEMBE;DAR ES SALAAM;UBUNGO;KWEMBE;GOVERNMENT;-6.819765;39.0984302;;;;;
EM.8682;PS0203-008;IDRIS A. WAKIL;DAR ES SALAAM;UBUNGO;MBEZI;GOVERNMENT;-6.7511316;39.0852362;;;;;
EM.4054;PS0203-009;MBWENI;DAR ES SALAAM;KINONDONI MC;MBWENI;GOVERNMENT;-6.641178;39.194267;;;;;
EM.4052;PS0203-010;MABWEPANDE;DAR ES SALAAM;KINONDONI MC;MABWEPANDE;GOVERNMENT;-6.810984;39.280642;;;;;
EM.2352;PS0203-011;UNUNIO;DAR ES SALAAM;KINONDONI MC;KUNDUCHI;GOVERNMENT;-6.632418;39.179138;;;;;
EM.7639;PS0203-012;KIMARA 'B';DAR ES SALAAM;UBUNGO;SARANGA;GOVERNMENT;-6.7736985;39.1507202;;;;;
EM.9233;PS0203-013;KISAUKE;DAR ES SALAAM;KINONDONI MC;WAZO;GOVERNMENT;-6.701344;39.134298;;;;;
EM.2350;PS0203-014;KUNDUCHI;DAR ES SALAAM;KINONDONI MC;KUNDUCHI;GOVERNMENT;-6.664216;39.191106;;;;;
EM.6981;PS0203-015;MAKONGO;DAR ES SALAAM;KINONDONI MC;MAKONGO;GOVERNMENT;-6.759927;39.197569;;;;;
EM.3424;PS0203-016;MBEZI;DAR ES SALAAM;UBUNGO;MBEZI;GOVERNMENT;-6.7828885;39.1172894;;;;;
EM.4055;PS0203-017;MTAKUJA;DAR ES SALAAM;KINONDONI MC;KUNDUCHI;GOVERNMENT;-6.6215889;39.2088507;;;;;
EM.8204;PS0203-018;CHANGANYIKENI;DAR ES SALAAM;KINONDONI MC;MAKONGO;GOVERNMENT;-6.810984;39.280642;;;;;
EM.10421;PS0203-020;ST. JOSEPH;DAR ES SALAAM;KINONDONI MC;KUNDUCHI;NON GOVERNMENT;-6.6963867;39.2070484;;;;;
EM.11631;PS0203-021;VALENTINE;DAR ES SALAAM;KINONDONI MC;KAWE;NON GOVERNMENT;-6.7210001;39.2130637;;;;;
EM.11624;PS0203-022;CITY ACADEMY;DAR ES SALAAM;KINONDONI MC;MAKONGO;NON GOVERNMENT;-6.7586992;39.2142391;;;;;
EM.17036;PS0203-023;MBOPO;DAR ES SALAAM;KINONDONI MC;MABWEPANDE;GOVERNMENT;-6.694624;39.106546;;;;;
EM.10566;PS0203-024;MSUMI;DAR ES SALAAM;UBUNGO;MBEZI;GOVERNMENT;-6.7112721;39.106675;;;;;
EM.10914;PS0203-025;GREEN ACRES;DAR ES SALAAM;KINONDONI MC;WAZO;NON GOVERNMENT;-6.697592;39.197598;;;;;
EM.10736;PS0203-026;ST. MARYS;DAR ES SALAAM;KINONDONI MC;MBEZI JUU;NON GOVERNMENT;-6.721155;39.204763;;;;;
EM.10280;PS0203-027;MAKABE;DAR ES SALAAM;UBUNGO;MBEZI;GOVERNMENT;-6.7593283;39.1052916;;;;;
EM.11149;PS0203-028;NAKASANGWE;DAR ES SALAAM;KINONDONI MC;WAZO;GOVERNMENT;-6.6685966;39.1266483;;;;;
EM.11628;PS0203-029;PIUS MSEKWA;DAR ES SALAAM;KINONDONI MC;KUNDUCHI;GOVERNMENT;-6.664235;39.190353;;;;;
EM.11144;PS0203-030;MOUNT KIBO;DAR ES SALAAM;KINONDONI MC;MBEZI JUU;NON GOVERNMENT;-6.7259832;39.2062876;;;;;
EM.11146;PS0203-031;MTONGANI;DAR ES SALAAM;KINONDONI MC;KUNDUCHI;GOVERNMENT;-6.6726616;39.2088916;;;;;
EM.11145;PS0203-032;MTAMBANI;DAR ES SALAAM;KINONDONI MC;BUNJU;GOVERNMENT;-6.633427;39.152767;;;;;
EM.10278;PS0203-033;PWANI;DAR ES SALAAM;KINONDONI MC;KUNDUCHI;GOVERNMENT;-6.658204;39.196623;;;;;
EM.11136;PS0203-034;KIUMBAGENI;DAR ES SALAAM;KINONDONI MC;MBWENI;GOVERNMENT;-6.6316169;39.188174;;;;;
EM.10919;PS0203-035;MAKAMBA;DAR ES SALAAM;UBUNGO;MBEZI;GOVERNMENT;-6.7529164;39.0889382;;;;;
EM.10921;PS0203-037;ST. ANNA MARIE;DAR ES SALAAM;UBUNGO;MSIGANI;NON GOVERNMENT;-6.782597;39.197869;;;;;
EM.11171;PS0203-038;KIBWEGERE;DAR ES SALAAM;UBUNGO;KIBAMBA;GOVERNMENT;-6.7664353;39.0318317;;;;;
EM.11657;PS0203-039;KILUNGULE;DAR ES SALAAM;UBUNGO;KIMARA;GOVERNMENT;-6.8066195;39.1714008;;;;;
EM.10565;PS0203-040;MALAMBA MAWILI;DAR ES SALAAM;UBUNGO;MSIGANI;GOVERNMENT;-6.810094;39.113619;;;;;
EM.10740;PS0203-041;MILENIA YA TATU;DAR ES SALAAM;UBUNGO;KIMARA;GOVERNMENT;-6.8087142;39.1564811;;;;;
EM.11176;PS0203-042;MSIGANI;DAR ES SALAAM;UBUNGO;MSIGANI;GOVERNMENT;-6.7920972;39.1179429;;;;;
EM.11178;PS0203-043;TEGETA 'A';DAR ES SALAAM;UBUNGO;GOBA;GOVERNMENT;-6.7355807;39.1299497;;;;;
EM.12433;PS0203-044;UPENDO;DAR ES SALAAM;UBUNGO;MBEZI;GOVERNMENT;-6.7824699;39.117947;;;;;
EM.12419;PS0203-045;WAZO HILL;DAR ES SALAAM;KINONDONI MC;WAZO;GOVERNMENT;-6.674453;39.169812;;;;;
EM.10912;PS0203-046;BAHARI;DAR ES SALAAM;KINONDONI MC;KUNDUCHI;NON GOVERNMENT;-6.661973;39.205801;;;;;
EM.12418;PS0203-047;SIYA MODERN;DAR ES SALAAM;KINONDONI MC;BUNJU;NON GOVERNMENT;-6.6332208;39.1158553;;;;;
EM.11148;PS0203-048;MWL. J. K. NYERERE;DAR ES SALAAM;KINONDONI MC;KAWE;NON GOVERNMENT;-6.7244771;39.2221088;;;;;
EM.11161;PS0203-050;ALLIENCE;DAR ES SALAAM;UBUNGO;MSIGANI;NON GOVERNMENT;-6.4718;39.559;;;;;
EM.10920;PS0203-051;MAKOKA;DAR ES SALAAM;UBUNGO;MAKUBURI;GOVERNMENT;-6.80255571;39.13229471;;;;;
EM.11660;PS0203-052;MSHIKAMANO;DAR ES SALAAM;UBUNGO;MBEZI;GOVERNMENT;-6.77687166;39.0966533;;;;;
EM.11179;PS0203-053;TEMBONI;DAR ES SALAAM;UBUNGO;MSIGANI;GOVERNMENT;-6.8074956;39.1314102;;;;;
EM.13053;PS0203-054;JANGWANI BEACH;DAR ES SALAAM;KINONDONI MC;KUNDUCHI;GOVERNMENT;-6.70131;39.2208918;;;;;
EM.11658;PS0203-055;KISOPWA;DAR ES SALAAM;UBUNGO;KWEMBE;GOVERNMENT;-6.8556799;39.0714433;;;;;
EM.11174;PS0203-056;KUNGURU;DAR ES SALAAM;UBUNGO;GOBA;GOVERNMENT;-6.7355266;39.1833866;;;;;
EM.11169;PS0203-057;JITIHADA;DAR ES SALAAM;UBUNGO;SARANGA;GOVERNMENT;-6.778485;39.14932;;;;;
EM.13538;PS0203-058;MT. EVEREST;DAR ES SALAAM;KINONDONI MC;MBWENI;NON GOVERNMENT;-6.6203274;39.1437002;;;;;
EM.12431;PS0203-060;MT. THERESIA;DAR ES SALAAM;UBUNGO;MSIGANI;NON GOVERNMENT;-6.78875;39.10815;;;;;
EM.11138;PS0203-061;MBEZI JUU;DAR ES SALAAM;KINONDONI MC;MBEZI JUU;GOVERNMENT;-6.727034;39.203553;;;;;
EM.10915;PS0203-062;MBEZI NDUMBWI;DAR ES SALAAM;KINONDONI MC;MBEZI JUU;GOVERNMENT;-6.8239825;39.1335549;;;;;
EM.11629;PS0203-063;SALASALA;DAR ES SALAAM;KINONDONI MC;WAZO;GOVERNMENT;-6.688077;39.192888;;;;;
EM.17295;PS0203-064;PRINCESS GATE;DAR ES SALAAM;KINONDONI MC;KUNDUCHI;NON GOVERNMENT;-6.672669;39.185574;;;;;
EM.11664;PS0203-065;ST. ANNS;DAR ES SALAAM;UBUNGO;MBEZI;NON GOVERNMENT;-6.7758833;39.1088066;;;;;
EM.14343;PS0203-066;LITTLE WOOD;DAR ES SALAAM;UBUNGO;KWEMBE;NON GOVERNMENT;-6.77187;39.0672336;;;;;
EM.11167;PS0203-067;GIFT SKILLFUL;DAR ES SALAAM;UBUNGO;MSIGANI;NON GOVERNMENT;-6.79999353;39.1356689;;;;;
EM.10559;PS0203-068;MBEZI BEACH;DAR ES SALAAM;KINONDONI MC;KAWE;GOVERNMENT;-6.7333991;39.2266721;;;;;
EM.14337;PS0203-069;RIGHTWAY;DAR ES SALAAM;KINONDONI MC;KAWE;NON GOVERNMENT;-6.7155635;39.2131876;;;;;
EM.11627;PS0203-070;NAITEDAM;DAR ES SALAAM;KINONDONI MC;MAKONGO;NON GOVERNMENT;-6.7579854;39.2094835;;;;;
EM.14605;PS0203-071;SAKANA;DAR ES SALAAM;UBUNGO;KIBAMBA;NON GOVERNMENT;-6.780135;39.051998;;;;;
EM.13545;PS0203-072;HONDOGO;DAR ES SALAAM;UBUNGO;KIBAMBA;GOVERNMENT;-6.7723839;39.0458384;;;;;
EM.12416;PS0203-073;CANOSA;DAR ES SALAAM;KINONDONI MC;KUNDUCHI;NON GOVERNMENT;-6.65533;39.184338;;;;;
EM.13907;PS0203-074;ST. COLUMBAS;DAR ES SALAAM;KINONDONI MC;MAKONGO;NON GOVERNMENT;-6.7510508;39.1852257;;;;;
EM.13546;PS0203-075;IMMACULATE;DAR ES SALAAM;UBUNGO;SARANGA;NON GOVERNMENT;-6.778082;39.133244;;;;;
EM.13063;PS0203-076;MOUNTAIN HILL;DAR ES SALAAM;UBUNGO;SARANGA;NON GOVERNMENT;-6.7684225;39.1734664;;;;;
EM.14344;PS0203-077;PARADIMS;DAR ES SALAAM;UBUNGO;KIMARA;NON GOVERNMENT;-6.8149985;39.1570997;;;;;
EM.13901;PS0203-078;GOSHENI;DAR ES SALAAM;KINONDONI MC;BUNJU;NON GOVERNMENT;-6.6203745;39.0611303;;;;;
EM.14601;PS0203-079;HELLENS;DAR ES SALAAM;UBUNGO;MBEZI;NON GOVERNMENT;-6.7159933;39.0613855;;;;;
EM.13537;PS0203-080;KELAND;DAR ES SALAAM;KINONDONI MC;WAZO;NON GOVERNMENT;-6.699671;39.185057;;;;;
EM.13547;PS0203-081;KULANGWA;DAR ES SALAAM;UBUNGO;GOBA;GOVERNMENT;-6.715881667;39.15402333;;;;;
EM.14596;PS0203-082;MOGA;DAR ES SALAAM;KINONDONI MC;BUNJU;NON GOVERNMENT;-6.607507;39.1125143;;;;;
EM.16715;PS0203-083;NEW ERA;DAR ES SALAAM;KINONDONI MC;MBWENI;NON GOVERNMENT;-6.6121488;39.1371483;;;;;
EM.13064;PS0203-084;SARANGA;DAR ES SALAAM;UBUNGO;SARANGA;GOVERNMENT;-6.8029368;39.1694852;;;;;
EM.13913;PS0203-085;VERITAS;DAR ES SALAAM;UBUNGO;KIMARA;NON GOVERNMENT;-6.7972755;39.1662344;;;;;
EM.14598;PS0203-086;ANAZAK;DAR ES SALAAM;UBUNGO;SARANGA;NON GOVERNMENT;-6.7817223;39.1344856;;;;;
EM.14599;PS0203-087;BARNEY;DAR ES SALAAM;UBUNGO;MBEZI;NON GOVERNMENT;-6.7403636;39.1077875;;;;;
EM.13534;PS0203-088;BRIGHT HOPE;DAR ES SALAAM;KINONDONI MC;KUNDUCHI;NON GOVERNMENT;-6.792354;39.2083284;;;;;
EM.14770;PS0203-089;GODENI;DAR ES SALAAM;KINONDONI MC;MABWEPANDE;NON GOVERNMENT;-6.810984;39.280642;;;;;
EM.14595;PS0203-090;DAYSTAR;DAR ES SALAAM;KINONDONI MC;BUNJU;NON GOVERNMENT;-6.811502;39.278958;;;;;
EM.11135;PS0203-091;HOPE & JOY;DAR ES SALAAM;KINONDONI MC;MBWENI;NON GOVERNMENT;-6.5811427;39.1271642;;;;;
EM.13061;PS0203-092;KING'AZI;DAR ES SALAAM;UBUNGO;KWEMBE;GOVERNMENT;-6.817968;39.100557;;;;;
EM.13911;PS0203-093;KING'ONGO;DAR ES SALAAM;UBUNGO;SARANGA;GOVERNMENT;-6.7617178;39.163241;;;;;
EM.13054;PS0203-094;LONDA;DAR ES SALAAM;KINONDONI MC;MAKONGO;GOVERNMENT;-6.7369787;39.2088064;;;;;
EM.14771;PS0203-095;MAKINI;DAR ES SALAAM;KINONDONI MC;KUNDUCHI;NON GOVERNMENT;-6.696699;39.225283;;;;;
EM.14603;PS0203-096;MATSAPA;DAR ES SALAAM;UBUNGO;MAKUBURI;NON GOVERNMENT;-6.8016283;39.1952167;;;;;
EM.13912;PS0203-097;MBEZI LUIS;DAR ES SALAAM;UBUNGO;MBEZI;GOVERNMENT;-6.752257;39.1250182;;;;;
EM.13906;PS0203-098;SKY;DAR ES SALAAM;KINONDONI MC;KUNDUCHI;NON GOVERNMENT;-6.6508772;39.1759862;;;;;
EM.13539;PS0203-099;ST. ALOYSIUS;DAR ES SALAAM;KINONDONI MC;KAWE;NON GOVERNMENT;-6.710251;39.217471;;;;;
EM.13536;PS0203-100;EDUCATION PLUS;DAR ES SALAAM;KINONDONI MC;KUNDUCHI;NON GOVERNMENT;-6.645746;39.176311;;;;;
EM.15001;PS0203-101;BAJEVIRO;DAR ES SALAAM;KINONDONI MC;KAWE;NON GOVERNMENT;-6.7207152;39.225566;;;;;
EM.14342;PS0203-102;FOUNTAIN OF JOY;DAR ES SALAAM;UBUNGO;MBEZI;NON GOVERNMENT;-6.7879915;39.1071329;;;;;
EM.13899;PS0203-103;DEBUGENE;DAR ES SALAAM;KINONDONI MC;MABWEPANDE;NON GOVERNMENT;-6.6096099;39.0968695;;;;;
EM.14606;PS0203-104;ST.FELISTA;DAR ES SALAAM;UBUNGO;KWEMBE;NON GOVERNMENT;-6.79905167;39.0863833;;;;;
EM.15234;PS0203-115;HIGHRIDGE;DAR ES SALAAM;UBUNGO;SARANGA;NON GOVERNMENT;-6.7863305;39.1283626;;;;;
EM.15427;PS0203-116;GOLANI;DAR ES SALAAM;UBUNGO;KIMARA;GOVERNMENT;-6.8087142;39.1564811;;;;;
EM.14780;PS0203-117;CALVARY MONTESSORY;DAR ES SALAAM;UBUNGO;MBEZI;NON GOVERNMENT;-6.7928276;39.0912856;;;;;
EM.15237;PS0203-118;MT. KILIMANJARO;DAR ES SALAAM;UBUNGO;SARANGA;NON GOVERNMENT;-6.7684225;39.1734664;;;;;
EM.14345;PS0203-119;ST. MAGRETH;DAR ES SALAAM;UBUNGO;KIMARA;NON GOVERNMENT;-6.8066195;39.1714008;;;;;
EM.14773;PS0203-120;STA. MARIA SALOME;DAR ES SALAAM;KINONDONI MC;BUNJU;NON GOVERNMENT;-6.6302158;39.1377075;;;;;
EM.14594;PS0203-121;BOKO NHC;DAR ES SALAAM;KINONDONI MC;BUNJU;GOVERNMENT;-6.6320011;39.1336921;;;;;
EM.14593;PS0203-122;BENACO;DAR ES SALAAM;KINONDONI MC;WAZO;GOVERNMENT;-6.690522;39.177764;;;;;
EM.14335;PS0203-123;KILIMANI ENG;DAR ES SALAAM;KINONDONI MC;MBEZI JUU;NON GOVERNMENT;-6.727034;39.203553;;;;;
EM.15003;PS0203-124;UWATA MADALE;DAR ES SALAAM;KINONDONI MC;WAZO;NON GOVERNMENT;-6.700744;39.126691;;;;;
EM.17032;PS0203-125;ATLAS MADALE;DAR ES SALAAM;KINONDONI MC;WAZO;NON GOVERNMENT;-6.80217157;39.2085527;;;;;
EM.15422;PS0203-126;MJI MPYA;DAR ES SALAAM;KINONDONI MC;MABWEPANDE;GOVERNMENT;-6.926967;39.157046;;;;;
EM.14597;PS0203-127;TEJ SCHOOL;DAR ES SALAAM;KINONDONI MC;MABWEPANDE;NON GOVERNMENT;-6.6054613;39.1061132;;;;;
EM.14604;PS0203-128;MOUNT MORIAH;DAR ES SALAAM;UBUNGO;MSIGANI;NON GOVERNMENT;-6.788306;39.130466;;;;;
EM.14336;PS0203-129;LIBERMANN;DAR ES SALAAM;KINONDONI MC;KAWE;NON GOVERNMENT;-6.710732;39.221448;;;;;
EM.14782;PS0203-130;KINGS;DAR ES SALAAM;UBUNGO;GOBA;NON GOVERNMENT;-6.74731;39.139916;;;;;
EM.15428;PS0203-131;HEKIMA WALDOF;DAR ES SALAAM;UBUNGO;GOBA;NON GOVERNMENT;-6.7345666;39.1743666;;;;;
EM.14600;PS0203-132;EMMI;DAR ES SALAAM;UBUNGO;KIBAMBA;NON GOVERNMENT;-6.788693;39.090818;;;;;
EM.14781;PS0203-133;KIBESA;DAR ES SALAAM;UBUNGO;MBEZI;GOVERNMENT;-6.6963217;39.0696217;;;;;
EM.15974;PS0203-134;MONT;DAR ES SALAAM;UBUNGO;MBEZI;NON GOVERNMENT;-6.717741;39.114332;;;;;
EM.15975;PS0203-136;NABA;DAR ES SALAAM;UBUNGO;SARANGA;NON GOVERNMENT;-6.8186433;39.1293899;;;;;
EM.15977;PS0203-137;ST. CLARET;DAR ES SALAAM;UBUNGO;SARANGA;NON GOVERNMENT;-6.7732485;39.1552453;;;;;
EM.15005;PS0203-138;ELIZABETH;DAR ES SALAAM;UBUNGO;GOBA;NON GOVERNMENT;-6.7339265;39.1896479;;;;;
EM.15239;PS0203-139;TOP LAYER;DAR ES SALAAM;UBUNGO;KIMARA;NON GOVERNMENT;-6.8066195;39.1714008;;;;;
EM.15962;PS0203-140;TUNAWAPENDA WATOTO;DAR ES SALAAM;KINONDONI MC;MABWEPANDE;NON GOVERNMENT;-6.628134;39.081859;;;;;
EM.15971;PS0203-141;AUREKE;DAR ES SALAAM;UBUNGO;MBEZI;NON GOVERNMENT;-6.7615877;39.1131322;;;;;
EM.15236;PS0203-142;MSAKUZI;DAR ES SALAAM;UBUNGO;KWEMBE;GOVERNMENT;-6.76722233;39.072085;;;;;
EM.15972;PS0203-144;BROOKSIDE;DAR ES SALAAM;UBUNGO;SARANGA;NON GOVERNMENT;-6.7896866;39.1482216;;;;;
EM.15961;PS0203-145;ROYAL ELITE;DAR ES SALAAM;KINONDONI MC;KUNDUCHI;NON GOVERNMENT;-6.694632;39.218642;;;;;
EM.17035;PS0203-146;FAITH;DAR ES SALAAM;KINONDONI MC;BUNJU;NON GOVERNMENT;-6.6163108;39.1141986;;;;;
EM.16725;PS0203-149;MOUNT SAYUNI;DAR ES SALAAM;UBUNGO;MSIGANI;NON GOVERNMENT;-6.82142;39.11387;;;;;
EM.15002;PS0203-152;MOTHER OF MERCY;DAR ES SALAAM;KINONDONI MC;WAZO;NON GOVERNMENT;-6.901727;39.15831;;;;;
EM.17033;PS0203-155;BUHAZINA;DAR ES SALAAM;KINONDONI MC;BUNJU;NON GOVERNMENT;-6.621002;39.114609;;;;;
EM.2534;PS0204-002;G/RUTIHINDA;DAR ES SALAAM;KINONDONI MC;KIGOGO;GOVERNMENT;-6.816479;39.256849;;;;;
EM.4607;PS0204-003;HANANASIF;DAR ES SALAAM;KINONDONI MC;HANANASIF;GOVERNMENT;-6.796615;39.26988;;;;;
EM.3036;PS0204-005;KARUME;DAR ES SALAAM;UBUNGO;MAKURUMLA;GOVERNMENT;-6.8060783;39.2492137;;;;;
EM.7638;PS0204-006;KAWAWA;DAR ES SALAAM;UBUNGO;MABIBO;GOVERNMENT;-6.813165;36.234805;;;;;
EM.477;PS0204-007;KAWE A;DAR ES SALAAM;KINONDONI MC;KAWE;GOVERNMENT;-6.735662;39.227233;;;;;
EM.4050;PS0204-008;KIGOGO;DAR ES SALAAM;KINONDONI MC;KIGOGO;GOVERNMENT;-6.817869;39.249099;;;;;
EM.4051;PS0204-009;KIJITONYAMA;DAR ES SALAAM;KINONDONI MC;KIJITONYAMA;GOVERNMENT;-6.778611;39.240311;;;;;
EM.5811;PS0204-010;KIJITONYAMA KISIWANI;DAR ES SALAAM;KINONDONI MC;KIJITONYAMA;GOVERNMENT;-6.784779;39.237288;;;;;
EM.11173;PS0204-011;KIMARA BARUTI;DAR ES SALAAM;UBUNGO;KIMARA;GOVERNMENT;-6.78911833;39.1783266;;;;;
EM.997;PS0204-012;KINONDONI;DAR ES SALAAM;KINONDONI MC;MWANANYAMALA;GOVERNMENT;-6.787916;39.554836;;;;;
EM.7636;PS0204-013;KUMBUKUMBU;DAR ES SALAAM;KINONDONI MC;KINONDONI;GOVERNMENT;-6.779975;39.249796;;;;;
EM.3421;PS0204-015;LUGALO;DAR ES SALAAM;KINONDONI MC;KAWE;GOVERNMENT;-6.750084;39.226953;;;;;
EM.4618;PS0204-016;MABIBO;DAR ES SALAAM;UBUNGO;MAKUBURI;GOVERNMENT;-6.8107651;39.2136792;;;;;
EM.1570;PS0204-017;MAGOMENI;DAR ES SALAAM;KINONDONI MC;MAGOMENI;GOVERNMENT;-6.802728;39.256706;;;;;
EM.6982;PS0204-019;MAKUMBUSHO;DAR ES SALAAM;KINONDONI MC;MAKUMBUSHO;GOVERNMENT;-6.780734;39.249077;;;;;
EM.1941;PS0204-020;MWL. NYERERE;DAR ES SALAAM;KINONDONI MC;NDUGUMBI;GOVERNMENT;-6.8113561;39.2554836;;;;;
EM.8205;PS0204-021;MAPAMBANO;DAR ES SALAAM;KINONDONI MC;KIJITONYAMA;GOVERNMENT;-6.7758583;39.2303116;;;;;
EM.8207;PS0204-022;MASHUJAA;DAR ES SALAAM;UBUNGO;SINZA;GOVERNMENT;-6.7822259;39.2224007;;;;;
EM.4060;PS0204-023;MAVURUNZA;DAR ES SALAAM;UBUNGO;SARANGA;GOVERNMENT;-6.7823366;39.1768377;;;;;
EM.4061;PS0204-025;MBURAHATI;DAR ES SALAAM;UBUNGO;MBURAHATI;GOVERNMENT;-6.811159;39.239232;;;;;
EM.4053;PS0204-026;MBUYUNI;DAR ES SALAAM;KINONDONI MC;MSASANI;GOVERNMENT;-6.7801512;39.2744654;;;;;
EM.8208;PS0204-027;MIANZINI;DAR ES SALAAM;UBUNGO;MAKURUMLA;GOVERNMENT;-6.8061213;39.2430204;;;;;
EM.13903;PS0204-028;MIKOCHENI;DAR ES SALAAM;KINONDONI MC;MIKOCHENI;GOVERNMENT;-6.770296;39.256136;;;;;
EM.2603;PS0204-029;MLIMANI;DAR ES SALAAM;UBUNGO;UBUNGO;GOVERNMENT;-6.775281;39.213068;;;;;
EM.5819;PS0204-030;MPAKANI;DAR ES SALAAM;UBUNGO;MABIBO;GOVERNMENT;-6.803265;39.228442;;;;;
EM.8209;PS0204-031;MUGABE;DAR ES SALAAM;UBUNGO;SINZA;GOVERNMENT;-6.7887395;39.2202475;;;;;
EM.5820;PS0204-032;MUUNGANO;DAR ES SALAAM;UBUNGO;MBURAHATI;GOVERNMENT;-6.814623;39.241223;;;;;
EM.1571;PS0204-033;MSASANI A;DAR ES SALAAM;KINONDONI MC;MSASANI;GOVERNMENT;-6.76181;39.26788;;;;;
EM.10281;PS0204-034;MSEWE;DAR ES SALAAM;UBUNGO;UBUNGO;GOVERNMENT;-6.802353;39.279556;;;;;
EM.3260;PS0204-036;MWANANYAMALA 'B';DAR ES SALAAM;KINONDONI MC;MAKUMBUSHO;GOVERNMENT;-6.786135;39.250213;;;;;
EM.4056;PS0204-037;MWANANYAMALA KISIWANI;DAR ES SALAAM;KINONDONI MC;MAKUMBUSHO;GOVERNMENT;-6.790915;39.250863;;;;;
EM.4609;PS0204-038;MWENGE;DAR ES SALAAM;KINONDONI MC;KIJITONYAMA;GOVERNMENT;-6.769582;39.233492;;;;;
EM.5812;PS0204-039;MWONGOZO;DAR ES SALAAM;KINONDONI MC;MWANANYAMALA;GOVERNMENT;-6.7797775;39.262062;;;;;
EM.1866;PS0204-040;MIKUMI;DAR ES SALAAM;KINONDONI MC;MZIMUNI;GOVERNMENT;-6.811988;39.258394;;;;;
EM.810;PS0204-041;OYSTERBAY;DAR ES SALAAM;KINONDONI MC;MSASANI;GOVERNMENT;-6.777006;39.278128;;;;;
EM.4062;PS0204-042;UBUNGO KISIWANI;DAR ES SALAAM;UBUNGO;MAKUBURI;GOVERNMENT;-6.8002267;39.2053017;;;;;
EM.3037;PS0204-043;UBUNGO NH;DAR ES SALAAM;UBUNGO;UBUNGO;GOVERNMENT;-6.790513;39.217631;;;;;
EM.4619;PS0204-044;UKOMBOZI;DAR ES SALAAM;UBUNGO;MANZESE;GOVERNMENT;-6.796322;39.228356;;;;;
EM.4620;PS0204-045;UMOJA;DAR ES SALAAM;UBUNGO;MABIBO;GOVERNMENT;-6.815025;39.228047;;;;;
EM.8206;PS0204-046;USHINDI;DAR ES SALAAM;KINONDONI MC;MIKOCHENI;GOVERNMENT;-6.754711;39.239986;;;;;
EM.7640;PS0204-047;UZURI;DAR ES SALAAM;UBUNGO;MANZESE;GOVERNMENT;-6.791052;39.229868;;;;;
EM.5821;PS0204-048;SINZA;DAR ES SALAAM;UBUNGO;SINZA;GOVERNMENT;-6.7883522;39.2257753;;;;;
EM.4057;PS0204-049;TANDALE;DAR ES SALAAM;KINONDONI MC;TANDALE;GOVERNMENT;-6.796882;39.243026;;;;;
EM.5813;PS0204-050;TANDALE MAGH.;DAR ES SALAAM;KINONDONI MC;TANDALE;GOVERNMENT;-6.7913219;39.2365826;;;;;
EM.4608;PS0204-051;KAWE B;DAR ES SALAAM;KINONDONI MC;KAWE;GOVERNMENT;-6.73454;39.226969;;;;;
EM.2351;PS0204-052;TURIANI;DAR ES SALAAM;KINONDONI MC;NDUGUMBI;GOVERNMENT;-6.802448;39.255482;;;;;
EM.9586;PS0204-053;ACADEMIC INTERNATIONAL;DAR ES SALAAM;KINONDONI MC;MIKOCHENI;NON GOVERNMENT;;;;;;;
EM.10738;PS0204-058;DAR TRUST FUND;DAR ES SALAAM;UBUNGO;SINZA;NON GOVERNMENT;-6.7849112;39.2223743;;;;;
EM.10037;PS0204-059;GOOD SAMARITAN;DAR ES SALAAM;KINONDONI MC;MSASANI;NON GOVERNMENT;-6.756116;39.279779;;;;;
EM.10279;PS0204-060;KIBANGU ENG.;DAR ES SALAAM;UBUNGO;MAKUBURI;NON GOVERNMENT;-6.8045648;39.199592;;;;;
EM.10735;PS0204-061;SHREE HINDU MANDAL;DAR ES SALAAM;KINONDONI MC;MIKOCHENI;NON GOVERNMENT;-6.772214;39.247674;;;;;
EM.10739;PS0204-062;FILBERT BAYI;DAR ES SALAAM;UBUNGO;SARANGA;NON GOVERNMENT;-6.788798;39.172602;;;;;
EM.10734;PS0204-063;ANSWAR;DAR ES SALAAM;KINONDONI MC;MWANANYAMALA;NON GOVERNMENT;-6.793383;39.2624974;;;;;
EM.11132;PS0204-065;ALI HASSAN MWINYI;DAR ES SALAAM;KINONDONI MC;MAGOMENI;GOVERNMENT;-6.802972;39.257337;;;;;
EM.11162;PS0204-066;AMANI;DAR ES SALAAM;UBUNGO;MABIBO;GOVERNMENT;-6.813165;39.234805;;;;;
EM.11163;PS0204-067;BARAFU;DAR ES SALAAM;UBUNGO;MBURAHATI;GOVERNMENT;-6.8133983;39.2428966;;;;;
EM.11133;PS0204-068;BONGOYO;DAR ES SALAAM;KINONDONI MC;MSASANI;GOVERNMENT;-6.7772096;39.2786791;;;;;
EM.11165;PS0204-069;BRYCESON;DAR ES SALAAM;UBUNGO;MBURAHATI;GOVERNMENT;-6.810535;39.239452;;;;;
EM.17031;PS0204-070;GRACE;DAR ES SALAAM;KIGAMBONI;MJIMWEMA;NON GOVERNMENT;-6.8684142;39.345958;;;;;
EM.11166;PS0204-071;DR. OMARI;DAR ES SALAAM;UBUNGO;MAKURUMLA;GOVERNMENT;-6.8060577;39.2495062;;;;;
EM.11656;PS0204-072;JESHINI;DAR ES SALAAM;UBUNGO;MABIBO;GOVERNMENT;-6.8150255;39.2280477;;;;;
EM.11170;PS0204-073;KIBANGU;DAR ES SALAAM;UBUNGO;MAKUBURI;GOVERNMENT;-6.8006194;39.2050361;;;;;
EM.11172;PS0204-074;KILIMANI;DAR ES SALAAM;UBUNGO;MANZESE;GOVERNMENT;-6.790876;39.229545;;;;;
EM.11659;PS0204-075;MAKUBURI;DAR ES SALAAM;UBUNGO;MAKUBURI;GOVERNMENT;-6.8107651;39.2136792;;;;;
EM.11137;PS0204-076;MAPINDUZI;DAR ES SALAAM;KINONDONI MC;KIGOGO;GOVERNMENT;-6.816982;39.258167;;;;;
EM.11175;PS0204-077;MANZESE;DAR ES SALAAM;UBUNGO;MANZESE;GOVERNMENT;-6.797665;39.229517;;;;;
EM.11139;PS0204-079;MCHANGANI;DAR ES SALAAM;KINONDONI MC;MAKUMBUSHO;GOVERNMENT;-6.791265;39.2506216;;;;;
EM.11140;PS0204-080;MINAZINI;DAR ES SALAAM;KINONDONI MC;MAKUMBUSHO;GOVERNMENT;-6.7867238;39.2501786;;;;;
EM.11141;PS0204-081;MIRAMBO;DAR ES SALAAM;KINONDONI MC;KAWE;GOVERNMENT;-6.753994;39.229329;;;;;
EM.11142;PS0204-082;MKUNGUNI;DAR ES SALAAM;KINONDONI MC;HANANASIF;GOVERNMENT;-6.7961242;39.2699723;;;;;
EM.11143;PS0204-083;MKWAWA;DAR ES SALAAM;KINONDONI MC;KIGOGO;GOVERNMENT;-6.8172864;39.249755;;;;;
EM.17294;PS0204-084;MSISIRI;DAR ES SALAAM;KINONDONI MC;MWANANYAMALA;GOVERNMENT;-6.7881947;39.2610999;;;;;
EM.11147;PS0204-085;MWANGAZA;DAR ES SALAAM;KINONDONI MC;KIJITONYAMA;GOVERNMENT;-6.7858321;39.236759;;;;;
EM.10916;PS0204-086;MZIMUNI;DAR ES SALAAM;KINONDONI MC;MZIMUNI;GOVERNMENT;-6.811397;39.257474;;;;;
EM.11150;PS0204-087;NDUGUMBI;DAR ES SALAAM;KINONDONI MC;NDUGUMBI;GOVERNMENT;-6.810984;39.280642;;;;;
EM.11630;PS0204-089;SHEKILANGO;DAR ES SALAAM;KINONDONI MC;KIJITONYAMA;GOVERNMENT;-6.7739399;39.2309814;;;;;
EM.11152;PS0204-090;TUMAINI;DAR ES SALAAM;KINONDONI MC;KAWE;GOVERNMENT;-6.827779;39.206234;;;;;
EM.11153;PS0204-091;UKWAMANI;DAR ES SALAAM;KINONDONI MC;KAWE;GOVERNMENT;-6.7334166;39.2268533;;;;;
EM.11180;PS0204-092;URAFIKI;DAR ES SALAAM;UBUNGO;UBUNGO;GOVERNMENT;-6.791583;39.216316;;;;;
EM.11154;PS0204-093;VICTORIA;DAR ES SALAAM;KINONDONI MC;MAKUMBUSHO;GOVERNMENT;-6.780049;39.249955;;;;;
EM.11177;PS0204-094;REGINALD MENGI;DAR ES SALAAM;UBUNGO;SINZA;GOVERNMENT;-6.7886194;39.2256972;;;;;
EM.9338;PS0204-096;ST. FLORENCE;DAR ES SALAAM;KINONDONI MC;MIKOCHENI;NON GOVERNMENT;-6.7672252;39.2532142;;;;;
EM.11134;PS0204-097;HEKIMA;DAR ES SALAAM;KINONDONI MC;TANDALE;GOVERNMENT;-6.796766;39.241468;;;;;
EM.11626;PS0204-098;MUHALITAN;DAR ES SALAAM;KINONDONI MC;TANDALE;GOVERNMENT;-6.789872;39.235196;;;;;
EM.12417;PS0204-099;PENSULA;DAR ES SALAAM;KINONDONI MC;MSASANI;NON GOVERNMENT;-6.751534;39.276667;;;;;
EM.10913;PS0204-101;FEZA;DAR ES SALAAM;KINONDONI MC;KAWE;NON GOVERNMENT;-6.7356588;39.2272317;;;;;
EM.11623;PS0204-102;AL-IRSHAAD;DAR ES SALAAM;KINONDONI MC;MSASANI;NON GOVERNMENT;-6.802274;39.287294;;;;;
EM.11164;PS0204-103;BETHEL MISSION;DAR ES SALAAM;UBUNGO;MAKUBURI;NON GOVERNMENT;-6.8261424;39.2019874;;;;;
EM.13533;PS0204-105;ALI HASSAN MWINYI ELITE;DAR ES SALAAM;KINONDONI MC;KAWE;NON GOVERNMENT;-6.7441556;39.2368813;;;;;
EM.13062;PS0204-106;MAKUBURI JESHINI;DAR ES SALAAM;UBUNGO;MAKUBURI;GOVERNMENT;-6.4807659;39.212673;;;;;
EM.13060;PS0204-107;ALI HASSAN MWINYI ISLAMIC;DAR ES SALAAM;UBUNGO;MBURAHATI;NON GOVERNMENT;-6.8165135;39.2459927;;;;;
EM.13905;PS0204-108;MSASANI B;DAR ES SALAAM;KINONDONI MC;MSASANI;GOVERNMENT;-6.76201;39.26861;;;;;
EM.13548;PS0204-109;UBUNGO PLAZA;DAR ES SALAAM;UBUNGO;UBUNGO;GOVERNMENT;-6.79267;39.215694;;;;;
EM.13535;PS0204-110;DRIVE INN;DAR ES SALAAM;KINONDONI MC;MSASANI;NON GOVERNMENT;-6.772795;39.266496;;;;;
EM.11625;PS0204-111;MTAMBANI ISLAMIC;DAR ES SALAAM;KINONDONI MC;KINONDONI;NON GOVERNMENT;-6.787458;39.263828;;;;;
EM.11663;PS0204-112;SAHARA;DAR ES SALAAM;UBUNGO;MABIBO;NON GOVERNMENT;-6.80789;39.2179061;;;;;
EM.11151;PS0204-113;SHEKHAT HISSA;DAR ES SALAAM;KINONDONI MC;MZIMUNI;NON GOVERNMENT;-6.8109847;39.2806425;;;;;
EM.13540;PS0204-114;SUNRAY;DAR ES SALAAM;KINONDONI MC;KINONDONI;NON GOVERNMENT;-6.785117;39.270895;;;;;
EM.13900;PS0204-115;EAST AFRICA;DAR ES SALAAM;KINONDONI MC;MIKOCHENI;NON GOVERNMENT;-6.750405;39.239248;;;;;
EM.13902;PS0204-116;HAZINA;DAR ES SALAAM;KINONDONI MC;MAGOMENI;NON GOVERNMENT;-6.8000824;39.2604392;;;;;
EM.13541;PS0204-117;SUNRISE;DAR ES SALAAM;KINONDONI MC;MIKOCHENI;NON GOVERNMENT;-6.776018;39.260641;;;;;
EM.13052;PS0204-118;GONZAGA;DAR ES SALAAM;KINONDONI MC;KIGOGO;NON GOVERNMENT;-6.819709;39.235109;;;;;
EM.12432;PS0204-119;ROSAMI;DAR ES SALAAM;UBUNGO;UBUNGO;NON GOVERNMENT;-6.794446;39.192313;;;;;
EM.13910;PS0204-120;ANNINYINDUMI;DAR ES SALAAM;UBUNGO;SARANGA;NON GOVERNMENT;-6.7792835;39.1712466;;;;;
EM.14779;PS0204-121;ATLAS;DAR ES SALAAM;UBUNGO;UBUNGO;NON GOVERNMENT;-6.8023554;39.2084987;;;;;
EM.14602;PS0204-122;MALAIKA;DAR ES SALAAM;UBUNGO;UBUNGO;NON GOVERNMENT;-6.7946033;39.1956967;;;;;
EM.13055;PS0204-123;MSISIRI 'B';DAR ES SALAAM;KINONDONI MC;MWANANYAMALA;GOVERNMENT;-6.7838116;39.2550783;;;;;
EM.14772;PS0204-124;MSASANI ISLAMIC;DAR ES SALAAM;KINONDONI MC;MSASANI;NON GOVERNMENT;-6.7713031;39.2788951;;;;;
EM.15235;PS0204-125;LUQMAN;DAR ES SALAAM;UBUNGO;SINZA;NON GOVERNMENT;-6.7830333;39.2217423;;;;;
EM.13904;PS0204-126;MIKOCHENI ISLAMIC;DAR ES SALAAM;KINONDONI MC;MIKOCHENI;NON GOVERNMENT;-6.757466;39.244444;;;;;
EM.15960;PS0204-127;DEEP SEA;DAR ES SALAAM;KINONDONI MC;KIGOGO;NON GOVERNMENT;-6.815845;39.258722;;;;;
EM.15238;PS0204-128;SANTA. LUKAS;DAR ES SALAAM;UBUNGO;MAKUBURI;NON GOVERNMENT;-6.8217957;39.2011171;;;;;
EM.4048;PS0205-001;BUYUNI I;DAR ES SALAAM;KIGAMBONI;PEMBA MNAZI;GOVERNMENT;-7.1040255;39.527454;;;;;
EM.9587;PS0205-002;CHAMAZI;DAR ES SALAAM;TEMEKE MC;CHAMAZI;GOVERNMENT;-6.9519071;39.2274801;;;;;
EM.10036;PS0205-003;CHEKENI MWASONGA;DAR ES SALAAM;KIGAMBONI;KISARAWE II;GOVERNMENT;-6.9764707;39.4151753;;;;;
EM.2112;PS0205-004;GEZAULOLE;DAR ES SALAAM;KIGAMBONI;SOMANGILA;GOVERNMENT;-6.8744861;39.4031018;;;;;
EM.4603;PS0205-005;GOMVU;DAR ES SALAAM;KIGAMBONI;SOMANGILA;GOVERNMENT;-6.93823963;39.47932803;;;;;
EM.809;PS0205-006;KIBADA;DAR ES SALAAM;KIGAMBONI;KIBADA;GOVERNMENT;-6.897335;39.337776;;;;;
EM.5808;PS0205-007;KIBUGUMO;DAR ES SALAAM;KIGAMBONI;MJIMWEMA;GOVERNMENT;-6.8704858;39.3789024;;;;;
EM.3031;PS0205-008;KIMBIJI;DAR ES SALAAM;KIGAMBONI;KIMBIJI;GOVERNMENT;-6.990495;39.527725;;;;;
EM.8277;PS0205-009;KISIWANI;DAR ES SALAAM;KIGAMBONI;VIJIBWENI;GOVERNMENT;-6.852295;39.323624;;;;;
EM.4611;PS0205-010;KONGOWE;DAR ES SALAAM;TEMEKE MC;TOANGOMA;GOVERNMENT;-6.9441071;39.2805672;;;;;
EM.4604;PS0205-011;KISARAWE II;DAR ES SALAAM;KIGAMBONI;KISARAWE II;GOVERNMENT;-6.929938;39.339873;;;;;
EM.4615;PS0205-012;MBANDE;DAR ES SALAAM;TEMEKE MC;CHAMAZI;GOVERNMENT;-6.9800351;39.2124142;;;;;
EM.2349;PS0205-013;MJIMWEMA;DAR ES SALAAM;KIGAMBONI;MJIMWEMA;GOVERNMENT;-6.8484228;39.3555729;;;;;
EM.5814;PS0205-014;MIKWAMBE;DAR ES SALAAM;TEMEKE MC;TOANGOMA;GOVERNMENT;-6.9219032;39.3408123;;;;;
EM.7635;PS0205-015;MIZIMBINI;DAR ES SALAAM;KIGAMBONI;KIBADA;GOVERNMENT;-6.8804933;39.3394917;;;;;
